City_ID,City,Lat,Lng,Max Temp,Humidity,Cloudiness,Wind Speed,Country,Date
0,grytviken,-54.2811,-36.5092,1.48,98,100,5.33,GS,1698358371
1,al jubayl,27.0112,49.6583,27.07,57,0,6.1,SA,1698358361
2,thompson,55.7435,-97.8558,-1.91,50,100,4.12,CA,1698358371
3,blackmans bay,-43.0167,147.3167,10.41,68,51,1.01,AU,1698358371
4,acarau,-2.8856,-40.12,25.87,77,7,7.27,BR,1698358155
5,horta,38.5333,-28.6333,16.68,78,77,2.68,PT,1698358372
6,margaret river,-33.95,115.0667,13.31,52,85,5.14,AU,1698358372
7,brookings,44.3114,-96.7984,10.1,95,100,4.12,US,1698358372
8,babat,-7.1128,112.1635,24.64,84,7,2.98,ID,1698358372
9,iqaluit,63.7506,-68.5145,-2.15,64,75,3.09,CA,1698358372
10,isafjordur,66.0755,-23.124,4.06,90,74,1.87,IS,1698358194
11,puerto natales,-51.7236,-72.4875,7.25,49,100,2.06,CL,1698358148
12,muisne,0.6,-80.0333,25.25,83,100,4.13,EC,1698358373
13,tiksi,71.6872,128.8694,-14.58,97,99,2.47,RU,1698358373
14,vilhena,-12.7406,-60.1458,26.93,56,85,2.11,BR,1698358234
15,ghanzi,-21.5667,21.7833,28.53,24,39,7.9,BW,1698358373
16,lebu,-37.6167,-73.65,12.37,81,3,5.0,CL,1698358373
17,brisas de zicatela,15.8369,-97.0419,26.73,86,100,0.84,MX,1698358373
18,manado,1.487,124.8455,25.43,83,20,1.54,ID,1698358358
19,georgetown,5.4112,100.3354,25.57,88,20,0.51,MY,1698358286
20,moussoro,13.6408,16.4901,30.01,13,14,3.95,TD,1698358374
21,port elizabeth,-33.918,25.5701,17.4,89,75,10.29,ZA,1698358374
22,yarmouth,41.7057,-70.2286,19.42,75,0,2.24,US,1698358374
23,jedrzejow,50.6394,20.3045,10.76,99,59,2.67,PL,1698358374
24,funafuti,-8.5243,179.1942,31.0,84,40,5.14,TV,1698358374
25,kailua-kona,19.6406,-155.9956,30.15,72,0,4.63,US,1698358175
26,galliano,29.4422,-90.2992,28.0,74,40,3.6,US,1698358375
27,palmerston,-12.486,130.9833,28.85,79,20,0.0,AU,1698358375
28,lihue,21.9789,-159.3672,27.77,65,0,3.6,US,1698358375
29,ushuaia,-54.8,-68.3,3.81,65,0,8.23,AR,1698358375
30,thames,-37.1333,175.5333,12.65,94,100,3.55,NZ,1698358375
31,mount isa,-20.7333,139.5,18.87,16,0,6.17,AU,1698358375
32,stanley,54.868,-1.6985,9.74,94,75,4.63,GB,1698358375
33,udachny,66.4167,112.4,-18.88,100,90,0.62,RU,1698358376
34,qaqortoq,60.7167,-46.0333,0.47,58,36,1.33,GL,1698358376
35,port mathurin,-19.6833,63.4167,24.33,76,33,6.3,MU,1698358376
36,pisco,-13.7,-76.2167,20.03,83,100,1.54,PE,1698358280
37,taltal,-25.4,-70.4833,16.85,69,22,1.29,CL,1698358220
38,broken hill,-31.95,141.4333,12.07,48,0,6.57,AU,1698358376
39,tofol,5.3248,163.0078,26.88,89,100,1.03,FM,1698358376
40,changleng,28.7,115.8167,21.13,73,100,1.8,CN,1698358377
41,trinec,49.6776,18.6708,12.71,87,100,2.35,CZ,1698358377
42,olonkinbyen,70.9221,-8.7187,-0.24,74,76,1.57,SJ,1698358377
43,kayangel,8.0823,134.7173,28.15,72,16,0.89,PW,1698358377
44,akureyri,65.6835,-18.0878,0.64,93,48,2.74,IS,1698358104
45,petropavlovsk-kamchatsky,53.0452,158.6483,0.81,83,0,7.15,RU,1698358377
46,merizo village,13.2658,144.6691,29.31,97,81,2.91,GU,1698358377
47,tvoroyri,61.5556,-6.8111,9.17,83,97,12.75,FO,1698358378
48,howrah,22.5892,88.3103,25.0,88,20,0.0,IN,1698358378
49,wamba,8.9333,8.6,23.94,79,22,1.03,NG,1698358378
50,bredasdorp,-34.5322,20.0403,14.12,76,58,3.08,ZA,1698358378
51,port-aux-francais,-49.35,70.2167,2.11,80,100,9.14,TF,1698358157
52,st. john's,47.5649,-52.7093,10.38,92,98,1.79,CA,1698358264
53,jamestown,42.097,-79.2353,20.95,49,0,4.12,US,1698358230
54,adamstown,-25.066,-130.1015,22.53,79,79,5.06,PN,1698358379
55,weno,7.4515,151.8468,28.97,84,75,0.0,FM,1698358156
56,bethel,41.3712,-73.414,22.19,63,47,1.04,US,1698358150
57,lata,40.1629,-8.3327,14.4,93,61,1.52,PT,1698358379
58,crane,31.3974,-102.3501,29.4,20,0,3.86,US,1698358379
59,hithadhoo,-0.6,73.0833,27.38,77,41,7.37,MV,1698358190
60,sinop,41.7711,34.8709,17.44,46,100,2.45,TR,1698358379
61,chonchi,-42.6128,-73.8092,11.73,67,89,2.84,CL,1698358379
62,sitka,57.0531,-135.33,10.94,46,0,2.06,US,1698358380
63,klyuchi,52.2667,79.1667,-1.09,58,6,6.62,RU,1698358177
64,heroica caborca,30.7167,-112.15,29.59,22,3,2.63,MX,1698358380
65,ancud,-41.8697,-73.8203,10.69,84,100,4.78,CL,1698358380
66,ottawa,45.4112,-75.6981,16.8,92,100,4.63,CA,1698357817
67,naha,26.2125,127.6811,22.38,68,20,3.6,JP,1698358380
68,atafu village,-8.5421,-172.5159,28.57,78,100,6.81,TK,1698358160
69,albany,42.6001,-73.9662,20.5,65,87,0.22,US,1698358103
70,hamilton,39.1834,-84.5333,24.03,61,0,4.12,US,1698358369
71,anadyr,64.75,177.4833,0.28,100,75,3.0,RU,1698358182
72,moranbah,-22.0016,148.0466,21.31,16,0,9.0,AU,1698358381
73,labytnangi,66.6572,66.4183,-9.19,90,100,1.65,RU,1698358381
74,koungheul,13.9833,-14.8,30.75,32,55,2.75,SN,1698358381
75,enewetak,11.3474,162.3373,28.66,77,100,7.24,MH,1698358381
76,puerto ayora,-0.7393,-90.3518,28.98,88,33,4.02,EC,1698358381
77,saint-pierre,-21.3393,55.4781,23.82,83,0,1.54,RE,1698358286
78,papatowai,-46.5619,169.4708,3.99,71,81,9.53,NZ,1698358382
79,i-n-salah,27.1935,2.4607,28.35,24,0,1.59,DZ,1698358382
80,kingston,17.997,-76.7936,28.45,74,82,2.5,JM,1698358287
81,avarua,-21.2078,-159.775,23.03,60,75,5.66,CK,1698358164
82,yuzhno-kurilsk,44.0306,145.8556,11.32,87,81,2.64,RU,1698358268
83,yorkton,51.2167,-102.4677,-5.09,63,100,3.6,CA,1698358383
84,phek,25.6667,94.5,9.85,99,39,0.46,IN,1698358383
85,rio verde de mato grosso,-18.9181,-54.8442,32.5,42,77,4.43,BR,1698358119
86,khandyga,62.6667,135.6,-7.59,97,100,0.48,RU,1698358383
87,nabire,-3.3667,135.4833,24.89,89,55,1.36,ID,1698358383
88,waitangi,-43.9535,-176.5597,13.23,92,98,4.02,NZ,1698358156
89,saguenay,48.4168,-71.0657,10.6,85,100,0.33,CA,1698358117
90,minot,48.2325,-101.2963,-3.88,80,100,6.69,US,1698358384
91,zhalantun,48.0,122.7167,-0.81,43,55,1.83,CN,1698358384
92,luderitz,-26.6481,15.1594,16.08,81,6,6.49,NA,1698358384
93,mariental,-24.6333,17.9667,26.03,19,41,7.46,NA,1698358230
94,dalandzadgad,43.5708,104.425,6.99,29,0,2.86,MN,1698358244
95,mangrol,21.1167,70.1167,26.36,62,11,2.05,IN,1698358385
96,boa vista,2.8197,-60.6733,32.99,49,40,3.09,BR,1698358385
97,cidreira,-30.1811,-50.2056,16.11,73,27,4.22,BR,1698358385
98,freetown,8.484,-13.2299,26.76,84,97,2.65,SL,1698358386
99,contamana,-7.3333,-75.0167,34.85,39,98,0.12,PE,1698358386
100,hermanus,-34.4187,19.2345,15.97,74,64,4.61,ZA,1698358386
101,ciudad bolivar,8.1222,-63.5497,28.89,70,91,2.47,VE,1698358386
102,cabo san lucas,22.8909,-109.9124,28.43,61,0,4.48,MX,1698357609
103,uturoa,-16.7333,-151.4333,25.66,81,100,4.54,PF,1698358386
104,khorixas,-20.3667,14.9667,18.94,47,19,1.33,NA,1698358387
105,bilibino,68.0546,166.4372,-18.83,100,91,1.28,RU,1698358387
106,osakarovka,50.565,72.5692,-3.12,63,7,4.35,KZ,1698358387
107,carnarvon,-24.8667,113.6333,19.45,77,10,11.47,AU,1698358197
108,badger,64.8,-147.5333,2.06,83,75,0.0,US,1698358387
109,namibe,-15.1961,12.1522,20.44,74,86,2.29,AO,1698358388
110,orchard homes,46.8633,-114.0484,-2.92,63,100,4.63,US,1698358388
111,puerto yuca,2.9383,-73.2083,29.39,71,45,1.15,CO,1698358388
112,xinyuan,37.3,99.0,-3.51,53,0,2.05,CN,1698358388
113,bien unido,10.1373,124.3776,27.01,81,25,0.58,PH,1698358389
114,castillos,-34.1667,-53.8333,11.42,72,0,2.11,UY,1698358389
115,novodvinsk,64.4165,40.8122,-1.23,83,99,2.22,RU,1698358389
116,daru,-9.0763,143.2092,26.58,81,70,3.47,PG,1698358226
117,ribeira grande,38.5167,-28.7,17.1,78,78,2.68,PT,1698358389
118,kandyagash,49.4744,57.4233,-1.52,61,99,3.1,KZ,1698358162
119,alvaraes,-3.2208,-64.8042,30.93,77,88,1.45,BR,1698358390
120,nova sintra,14.8667,-24.7167,25.01,78,96,8.48,CV,1698358165
121,sikasso,10.9167,-7.0,27.92,44,64,1.73,ML,1698358190
122,saipan,15.1355,145.701,29.39,84,40,4.63,MP,1698358390
123,edinburgh of the seven seas,-37.0676,-12.3116,12.4,63,100,5.26,SH,1698358390
124,fort bragg,35.139,-79.006,25.46,60,0,1.54,US,1698358391
125,sal rei,16.1833,-22.9167,27.19,83,91,8.91,CV,1698358391
126,huangshan,29.7114,118.3125,17.27,88,100,0.66,CN,1698358391
127,senador jose porfirio,-2.5908,-51.9542,32.35,40,68,2.31,BR,1698358391
128,tura,25.5198,90.2201,19.23,89,0,1.12,IN,1698358392
129,kruisfontein,-34.0033,24.7314,16.56,81,94,7.88,ZA,1698358392
130,zagora,30.3484,-5.8365,23.62,17,11,2.86,MA,1698358392
131,wanning,18.8003,110.3967,24.75,92,79,0.97,CN,1698358392
132,belyy yar,53.6039,91.3903,8.94,66,0,4.0,RU,1698358393
133,afaahiti,-17.75,-149.2833,26.93,88,100,2.25,PF,1698358252
134,guigang,23.0964,109.6092,23.14,93,29,1.33,CN,1698358393
135,viitasaari,63.0667,25.8667,-2.11,82,100,2.47,FI,1698358393
136,toliara,-23.35,43.6667,20.77,63,4,4.82,MG,1698358393
137,aurillac,44.9167,2.45,10.49,91,100,6.17,FR,1698358394
138,forster,-32.1667,152.5167,17.94,68,100,8.5,AU,1698358394
139,talnakh,69.4865,88.3972,-16.58,94,38,1.0,RU,1698358394
140,punta arenas,-53.15,-70.9167,5.62,56,99,5.05,CL,1698358394
141,dubbo,-32.25,148.6167,12.07,71,0,6.17,AU,1698357722
142,essau,13.4839,-16.5347,27.09,79,97,6.76,GM,1698358394
143,kaa-khem,51.6833,94.7333,4.67,41,80,2.05,RU,1698358395
144,calvinia,-31.4707,19.776,15.67,38,30,2.9,ZA,1698358395
145,wailua homesteads,22.0669,-159.378,27.44,66,0,3.6,US,1698358160
146,polyarnyy,69.1989,33.4478,-3.47,93,100,2.99,RU,1698358220
147,nar'yan-mar,67.6713,53.087,-11.61,100,76,1.79,RU,1698358395
148,igrim,63.1906,64.4162,-6.33,69,99,1.63,RU,1698358396
149,anshun,26.25,105.9333,12.72,94,89,2.23,CN,1698358396
150,antsiranana,-12.2787,49.2917,23.79,84,6,2.84,MG,1698358396
151,puerto baquerizo moreno,-0.9,-89.6,23.59,77,71,5.46,EC,1698358396
152,lompoc,34.6391,-120.4579,23.9,68,20,11.18,US,1698358397
153,rongelap,11.1635,166.8941,27.77,70,85,5.33,MH,1698358397
154,tazovsky,67.4667,78.7,-12.91,94,85,5.22,RU,1698358397
155,tianpeng,30.9866,103.9393,14.56,81,100,0.2,CN,1698358397
156,starokucherganovka,46.3248,47.9555,13.96,100,100,4.02,RU,1698358397
157,sunland,38.8928,-101.8216,24.66,27,0,3.4,US,1698358398
158,yanykurgan,43.915,67.2481,9.39,55,100,1.39,KZ,1698358398
159,kapuskasing,49.4169,-82.4331,1.05,93,100,4.63,CA,1698358398
160,arraial do cabo,-22.9661,-42.0278,22.92,88,75,2.57,BR,1698358398
161,payson,40.0444,-111.7321,9.14,44,0,4.12,US,1698358398
162,ilebo,-4.3167,20.5833,21.22,99,98,0.77,CD,1698358399
163,pandan,14.0453,124.1694,26.56,82,78,1.8,PH,1698358399
164,la punta,-33.1837,-66.3127,22.53,43,33,2.52,AR,1698358399
165,ban nam yuen,9.8769,98.8659,26.11,96,87,0.37,TH,1698358399
166,moree,-29.4667,149.85,14.45,69,35,8.42,AU,1698358400
167,gargalianoi,37.0667,21.6333,19.64,87,48,0.68,GR,1698358400
168,hasaki,35.7333,140.8333,11.22,56,78,2.21,JP,1698358400
169,inhambane,-23.865,35.3833,20.58,69,0,3.29,MZ,1698358400
170,fort st. john,56.2499,-120.8529,-2.06,64,75,2.57,CA,1698358400
171,kavieng,-2.5744,150.7967,27.6,77,100,1.6,PG,1698358400
172,magadan,59.5667,150.8,-5.97,78,70,2.45,RU,1698358353
173,muriti,-1.9833,32.9167,23.77,72,54,4.52,TZ,1698358401
174,la'ie,21.6477,-157.9253,30.66,71,61,2.24,US,1698358371
175,ust-nera,64.5667,143.2,-21.61,92,97,1.44,RU,1698358192
176,whitehorse,60.7161,-135.0538,-2.57,74,75,3.09,CA,1698358401
177,constantia,44.1833,28.65,15.38,70,71,4.12,RO,1698358198
178,port alfred,-33.5906,26.891,17.88,86,80,1.34,ZA,1698358401
179,zheleznodorozhnyy,55.7503,38.0042,-2.17,57,100,4.92,RU,1698358402
180,walvis bay,-22.9575,14.5053,14.86,90,26,0.91,NA,1698358402
181,galle,6.0367,80.217,24.84,88,95,2.1,LK,1698358402
182,harnosand,62.6323,17.9379,1.0,72,100,1.65,SE,1698358402
183,ain taya,36.7933,3.2869,18.91,72,0,1.03,DZ,1698358402
184,hadibu,12.65,54.0333,26.58,83,44,4.04,YE,1698358402
185,isangel,-19.55,169.2667,27.06,94,75,1.54,VU,1698358403
186,popondetta,-8.7537,148.2534,27.97,66,81,0.43,PG,1698358403
187,sarmiento,-45.5882,-69.07,14.75,38,100,12.48,AR,1698358403
188,kodiak,57.79,-152.4072,7.73,66,100,5.14,US,1698358403
189,manta,-0.95,-80.7333,25.88,78,100,5.14,EC,1698358178
190,cole harbour,44.6724,-63.4751,17.66,90,73,2.57,CA,1698358403
191,iskateley,67.6803,53.1512,-11.66,100,74,1.79,RU,1698358404
192,panchgani,17.9167,73.8167,15.11,48,33,2.06,IN,1698358404
193,dera bugti,29.0307,69.151,23.31,24,67,1.4,PK,1698358404
194,san antonio,29.4241,-98.4936,28.62,88,100,4.12,US,1698358241
195,side,36.7667,31.3885,22.97,51,100,1.99,TR,1698358404
196,wang nam yen,13.5033,102.1812,23.12,94,86,0.76,TH,1698358405
197,mebane,36.096,-79.267,23.82,69,0,0.0,US,1698358405
198,sturgeon bay,44.8342,-87.377,17.2,100,100,2.06,US,1698358405
199,newman,37.3138,-121.0208,20.19,43,1,3.13,US,1698358405
200,sedan,49.6667,5.0,8.32,97,95,2.04,FR,1698358405
201,san ciro de acosta,21.6333,-99.8167,26.3,67,80,3.83,MX,1698358406
202,xilin hot,43.9667,116.0333,4.18,35,12,2.89,CN,1698358406
203,west island,-12.1568,96.8225,24.99,83,75,9.77,CC,1698358406
204,letlhakane,-21.4167,25.5833,24.4,38,7,4.74,BW,1698358406
205,la ronge,55.1001,-105.2842,-1.86,54,75,4.12,CA,1698358406
206,kalabo,-14.97,22.6814,26.25,29,45,2.54,ZM,1698358406
207,inirida,3.8653,-67.9239,27.2,86,100,0.82,CO,1698358407
208,quellon,-43.1167,-73.6167,11.68,69,100,3.88,CL,1698358407
209,conde,-7.2597,-34.9075,24.7,100,75,3.09,BR,1698358407
210,port shepstone,-30.7414,30.455,20.07,93,56,7.68,ZA,1698358296
211,invercargill,-46.4,168.35,4.45,79,95,7.6,NZ,1698358264
212,vorgashor,67.5833,63.95,-10.06,95,100,3.4,RU,1698358407
213,palmer,42.1584,-72.3287,21.75,64,75,0.0,US,1698358407
214,siguiri,11.6667,-9.5,26.81,32,38,1.7,GN,1698358408
215,tanabe,33.7333,135.3667,15.82,70,0,1.91,JP,1698358408
216,santa isabel,-23.3156,-46.2214,19.84,98,100,1.72,BR,1698358408
217,khovd,48.0056,91.6419,5.93,30,99,3.86,MN,1698358408
218,eyl,7.9803,49.8164,26.7,81,38,4.16,SO,1698358408
219,lensk,60.7253,114.9278,0.9,99,100,1.72,RU,1698358408
220,prien,30.1819,-93.2738,29.01,66,75,7.72,US,1698358409
221,saint-leu,-21.15,55.2833,23.48,87,0,1.33,RE,1698358409
222,longyearbyen,78.2186,15.6401,-3.09,80,75,2.57,SJ,1698358409
223,greymouth,-42.4667,171.2,8.47,69,98,9.27,NZ,1698358409
224,morada nova,-5.1067,-38.3725,26.43,64,66,5.73,BR,1698358409
225,souillac,-20.5167,57.5167,23.21,88,20,1.54,MU,1698358410
226,san rafael,-34.6177,-68.3301,27.25,12,8,5.76,AR,1698358248
227,sandnessjoen,66.0217,12.6316,-1.71,72,75,3.44,NO,1698358410
228,calbuco,-41.768,-73.1273,12.68,74,100,3.17,CL,1698358410
229,seversk,56.6006,84.8864,-0.47,91,94,7.15,RU,1698358411
230,yellowknife,62.456,-114.3525,-0.88,80,63,4.92,CA,1698358120
231,willebadessen,51.6256,9.0369,8.21,96,75,1.58,DE,1698358411
232,vila franca do campo,37.7167,-25.4333,16.6,99,100,3.19,PT,1698358193
233,smithers,54.7804,-127.1743,3.3,37,0,1.05,CA,1698358232
234,ilulissat,69.2167,-51.1,1.01,51,47,6.69,GL,1698358411
235,fangshan,39.6983,115.9925,13.22,37,0,1.15,CN,1698358412
236,fernie,49.5,-115.0687,-3.89,62,100,1.43,CA,1698358412
237,aasiaat,68.7098,-52.8699,-6.73,86,88,3.59,GL,1698358412
238,westport,41.1415,-73.3579,22.93,65,0,1.54,US,1698358281
239,piti village,13.4626,144.6933,29.49,88,0,2.57,GU,1698358412
240,aykhal,66.0,111.5,-16.0,100,82,0.56,RU,1698358413
241,college,64.8569,-147.8028,2.11,78,75,0.0,US,1698358194
242,la sarre,48.8002,-79.1996,3.67,94,100,4.03,CA,1698358413
243,tsiombe,-25.3,45.4833,18.96,70,100,1.89,MG,1698358413
244,nemuro,43.3236,145.575,11.63,79,70,2.28,JP,1698358198
245,bambanglipuro,-7.95,110.2833,24.63,89,41,1.99,ID,1698358413
246,vila velha,-20.3297,-40.2925,25.97,89,75,4.12,BR,1698358414
247,nova vicosa,-17.8919,-39.3719,25.11,88,88,4.38,BR,1698358256
248,dolbeau-mistassini,48.8763,-72.212,8.53,83,100,1.58,CA,1698358200
249,san juan de los morros,9.9115,-67.3538,24.17,89,100,0.4,VE,1698358414
250,xinzhou,38.4092,112.7333,9.45,32,0,1.01,CN,1698358242
251,awjilah,29.1081,21.2869,23.19,50,0,3.96,LY,1698358415
252,alice springs,-23.7,133.8833,10.75,28,0,0.0,AU,1698358415
253,rabaul,-4.1967,152.1721,26.44,79,100,3.1,PG,1698358415
254,bayside,40.8424,-124.0637,18.13,58,0,6.69,US,1698358415
255,revda,56.801,59.9303,-8.3,94,18,3.68,RU,1698358415
256,leticia,-4.2153,-69.9406,26.99,94,40,1.54,CO,1698358416
257,severo-yeniseyskiy,60.3725,93.0408,0.88,97,100,2.68,RU,1698358282
258,seeb,23.6703,58.1891,25.05,73,40,2.57,OM,1698358416
259,colonia,50.9333,6.95,11.09,91,75,3.6,DE,1698358188
260,codrington,-38.2667,141.9667,10.76,67,15,3.57,AU,1698358416
261,ipueiras,-7.0333,-40.45,29.16,21,12,3.85,BR,1698358389
262,argo,37.6333,22.7333,19.5,73,14,1.31,GR,1698358190
263,sur,22.5667,59.5289,27.06,65,19,1.36,OM,1698358417
264,vernal,40.4555,-109.5287,10.84,24,20,9.77,US,1698358259
265,palikir - national government center,6.9248,158.1611,31.41,70,100,2.06,FM,1698358417
266,lubango,-14.9172,13.4925,18.81,72,100,2.07,AO,1698358417
267,island harbour,50.724,-1.2758,11.66,94,72,3.83,GB,1698358417
268,qamdo,31.1667,97.2333,-4.1,75,75,1.68,CN,1698358417
269,ohara,35.25,140.3833,18.33,68,74,2.75,JP,1698358418
270,san antonio de pale,-1.4014,5.6325,25.87,85,90,3.79,GQ,1698358418
271,bima,-8.4667,118.7167,24.05,87,6,1.26,ID,1698358418
272,kolondieba,11.0882,-6.8926,27.53,43,50,1.75,ML,1698358418
273,lindi,-10.0,39.7167,24.5,94,5,0.98,TZ,1698358418
274,guerrero negro,27.9769,-114.0611,21.14,61,2,7.33,MX,1698358294
275,monahans,31.5943,-102.8926,29.39,29,0,4.19,US,1698358418
276,portland,45.5234,-122.6762,12.64,80,100,3.09,US,1698357785
277,amahai,-3.3333,128.9167,25.11,79,73,1.85,ID,1698358419
278,san luis de la loma,17.2706,-100.8939,28.14,78,86,2.35,MX,1698358179
279,shimoda,34.6667,138.95,18.95,69,40,3.02,JP,1698358419
280,uray,60.1247,64.7758,-6.18,65,58,4.47,RU,1698358419
281,flying fish cove,-10.4217,105.6791,24.82,83,75,4.63,CX,1698358419
282,cromwell,41.5951,-72.6454,23.08,61,0,2.57,US,1698358419
283,faya-largeau,17.9257,19.1043,26.62,19,1,6.05,TD,1698358420
284,mahina,-17.5065,-149.489,27.87,69,75,3.09,PF,1698358420
285,bachatskiy,54.2927,86.1285,-0.09,80,86,8.58,RU,1698358420
286,laojunmiao,39.8333,97.7333,6.87,21,0,2.34,CN,1698358420
287,el calafate,-50.3408,-72.2768,6.35,52,91,1.47,AR,1698358420
288,villa regina,-39.1,-67.0667,26.66,15,72,2.24,AR,1698358421
289,idri,27.5,13.2667,25.53,26,0,4.06,LY,1698358421
290,rikaze,29.25,88.8833,0.24,53,0,1.21,CN,1698358421
291,arar,30.9753,41.0381,21.01,43,0,2.57,SA,1698358421
292,grand-lahou,5.1367,-5.0242,25.59,91,47,3.97,CI,1698358421
293,selibaby,15.159,-12.1829,33.6,11,59,3.38,MR,1698358421
294,decize,46.8285,3.4619,11.67,92,100,5.51,FR,1698358422
295,port lincoln,-34.7333,135.8667,14.31,66,74,6.93,AU,1698358422
296,hawaiian paradise park,19.5933,-154.9731,26.73,88,100,5.66,US,1698358166
297,derebucak,37.3918,31.5092,13.15,64,100,1.89,TR,1698358422
298,kirensk,57.7853,108.1119,1.65,96,93,4.92,RU,1698358422
299,aksu,41.1231,80.2644,11.45,34,35,1.08,CN,1698358422
300,santiago de cao,-7.9589,-79.2392,20.07,77,40,4.63,PE,1698358422
301,kampong thom,12.7111,104.8887,24.1,93,74,2.0,KH,1698358423
302,harstad,68.799,16.5293,2.56,96,87,1.34,NO,1698358423
303,nogliki,51.8333,143.1667,2.97,82,67,3.13,RU,1698358423
304,mszczonow,51.9742,20.5208,12.25,92,83,4.28,PL,1698358423
305,kropp,54.4167,9.5167,9.06,94,99,5.14,DE,1698358423
306,uglegorsk,49.0833,142.0333,7.0,80,92,2.35,RU,1698358423
307,machico,32.7,-16.7667,22.62,80,20,2.57,PT,1698358424
308,ambovombe,-25.1667,46.0833,19.47,69,100,2.55,MG,1698358424
309,paredon,16.0333,-93.8667,29.59,73,94,1.52,MX,1698358424
310,al jawf,29.5,38.75,23.79,31,0,6.07,SA,1698358424
311,santa maria,-29.6842,-53.8069,17.24,80,5,2.13,BR,1698358424
312,howard springs,-12.497,131.047,28.82,79,57,1.38,AU,1698358424
313,hauterive,46.0901,3.4459,13.42,88,100,5.51,FR,1698358424
314,malmberget,67.1753,20.6549,-4.69,93,100,0.0,SE,1698358425
315,canon city,38.441,-105.2424,25.09,16,0,2.68,US,1698358425
316,kone,-21.0595,164.8658,23.82,84,100,2.47,NC,1698358425
317,salacgriva,57.7536,24.3581,0.48,83,91,5.74,LV,1698358425
318,retreat,38.8245,-85.8533,24.72,50,93,0.89,US,1698358425
319,arkhangel'sk,64.5401,40.5433,-1.04,83,99,2.31,RU,1698358201
320,bairnsdale,-37.8333,147.6167,13.36,68,6,0.45,AU,1698358426
321,shiggaon,15.0,75.2333,19.41,53,0,2.64,IN,1698358426
322,kununurra,-15.7667,128.7333,28.99,16,64,4.63,AU,1698358426
323,ponte vedra beach,30.2397,-81.3856,26.16,68,100,4.63,US,1698358426
324,jiangyou,31.7667,104.7167,15.74,80,100,0.92,CN,1698358426
325,puerto aysen,-45.4,-72.7,7.75,99,100,2.44,CL,1698358426
326,bechem,7.0903,-2.025,22.92,93,25,1.39,GH,1698358426
327,vilyuchinsk,52.9306,158.4028,1.63,72,4,2.62,RU,1698358427
328,salinopolis,-0.6136,-47.3561,27.76,70,35,5.18,BR,1698358427
329,taoudenni,22.6783,-3.9836,32.2,18,4,4.71,ML,1698358427
330,new norfolk,-42.7826,147.0587,11.07,62,23,1.17,AU,1698358427
331,wynyard,-41.0,145.7167,9.83,54,2,1.8,AU,1698358427
332,keflavik,64.0049,-22.5624,7.24,87,0,0.51,IS,1698358427
333,gualeguay,-33.1416,-59.3097,18.35,62,1,3.53,AR,1698358427
334,puerto real,36.5282,-6.1901,20.9,89,97,6.28,ES,1698358428
335,alofi,-19.0595,-169.9187,24.94,65,75,8.23,NU,1698358220
336,waingapu,-9.6567,120.2641,26.27,70,4,0.37,ID,1698358428
337,beroroha,-21.6667,45.1667,25.05,43,0,3.34,MG,1698358428
338,dano,11.15,-3.0667,29.35,41,97,1.16,BF,1698358428
339,hede,33.7681,120.2517,15.55,61,60,3.22,CN,1698358428
340,millau,44.0833,2.9167,12.79,95,100,5.24,FR,1698358428
341,karratha,-20.7377,116.8463,30.71,21,18,8.7,AU,1698358429
342,bangui,4.3612,18.555,20.69,99,96,0.79,CF,1698358429
343,akjoujt,19.6969,-14.4164,31.29,22,99,5.38,MR,1698358429
344,rawson,-43.3002,-65.1023,15.91,43,52,3.5,AR,1698358429
345,mukalla,14.5425,49.1242,26.42,69,85,3.15,YE,1698358429
346,north bend,43.4065,-124.2243,14.02,62,40,2.57,US,1698358429
347,pailon,-17.65,-62.75,26.5,44,100,4.06,BO,1698358429
348,qalat,32.1058,66.9083,14.69,32,0,1.83,AF,1698358430
349,hakha,22.65,93.6167,11.43,97,3,0.68,MM,1698358430
350,tralee,52.2704,-9.7026,8.43,95,74,2.31,IE,1698358430
351,simanggang,1.2472,111.4528,22.8,99,100,0.0,MY,1698358430
352,chernyshevsk,52.5243,117.0174,-4.13,68,10,0.39,RU,1698358430
353,geraldton,-28.7667,114.6,14.23,88,99,6.17,AU,1698358430
354,linqiong,30.4159,103.4609,16.01,77,100,1.24,CN,1698358430
355,sa'dah,16.9402,43.7639,16.15,81,100,2.73,YE,1698358431
356,sitangkai,4.6628,119.3928,28.21,73,76,1.81,PH,1698358431
357,ibeto,10.4854,5.145,25.48,49,21,1.59,NG,1698358431
358,jincheng,35.5022,112.8328,13.41,47,80,0.16,CN,1698358251
359,east london,-33.0153,27.9116,20.42,89,74,4.95,ZA,1698358431
360,yugorsk,61.3133,63.3319,-4.5,83,100,2.53,RU,1698358431
361,canutama,-6.5339,-64.3831,32.91,42,75,1.84,BR,1698358431
362,chibougamau,49.9168,-74.3659,1.79,87,100,2.57,CA,1698358287
363,mount pearl,47.5166,-52.7813,9.92,93,99,0.89,CA,1698358198
364,port-gentil,-0.7193,8.7815,25.62,87,100,4.11,GA,1698358432
365,chegdomyn,51.1167,133.0167,-4.54,87,11,1.5,RU,1698358432
366,marsh harbour,26.5412,-77.0636,26.62,58,94,9.29,BS,1698358432
367,naze,28.3667,129.4833,20.01,61,33,4.32,JP,1698358432
368,kudahuvadhoo,2.6708,72.8944,27.2,79,86,5.13,MV,1698358432
369,essaouira,31.5125,-9.77,19.72,88,47,2.57,MA,1698358432
370,launceston,-41.45,147.1667,11.0,71,40,3.09,AU,1698358433
371,sant antoni de portmany,38.9807,1.3036,23.94,71,20,8.23,ES,1698358433
372,nishon tumani,38.694,65.6751,16.14,72,0,2.06,UZ,1698358433
373,vernon,50.2581,-119.2691,6.53,38,78,2.24,CA,1698358373
374,marsabit,2.3284,37.9899,21.61,63,93,4.33,KE,1698358433
375,gadzhiyevo,69.2551,33.3362,-3.84,94,100,2.92,RU,1698358433
376,kiunga,-6.1219,141.2906,24.11,75,95,0.31,PG,1698358433
377,west end,26.6833,-78.9667,25.99,62,13,9.73,BS,1698358434
378,yamba,-5.9,22.3,19.73,97,100,0.36,CD,1698358434
379,mytilene,39.11,26.5547,21.23,79,79,3.61,GR,1698358434
380,paris,48.8534,2.3488,12.65,95,75,2.57,FR,1698358155
381,mil'kovo,55.6078,37.7956,-1.99,93,100,6.02,RU,1698358434
382,margate,51.3813,1.3862,10.94,92,100,4.16,GB,1698358434
383,taitung city,22.7583,121.1444,24.37,84,96,2.07,TW,1698358434
384,bayanhongor,46.7167,100.1167,-2.11,40,26,0.42,MN,1698358399
385,salinas,36.6777,-121.6555,21.0,55,0,7.2,US,1698358191
386,ogulin,45.2661,15.2286,14.78,87,100,4.94,HR,1698358435
387,humaita,-7.5061,-63.0208,25.56,84,93,3.09,BR,1698358435
388,fedorovskiy,45.0972,40.9517,16.16,71,100,2.35,RU,1698358435
389,fale old settlement,-9.3852,-171.2468,28.41,78,77,6.59,TK,1698358435
390,katsuren-haebaru,26.3369,127.8719,22.43,68,0,2.57,JP,1698358435
391,kharp,66.8014,65.8081,-10.31,90,100,2.73,RU,1698358436
392,utrik,11.2278,169.8474,27.86,79,70,5.28,MH,1698358230
393,padang,-0.9492,100.3543,23.03,91,90,1.88,ID,1698358395
394,prado,-17.3411,-39.2208,24.74,91,100,6.63,BR,1698358436
395,lubuklinggau,-3.3,102.8667,22.47,86,22,0.89,ID,1698358436
396,pyin oo lwin,22.0333,96.4667,15.97,88,12,0.99,MM,1698358436
397,ulety,51.3572,112.4849,-1.39,76,7,1.11,RU,1698358436
398,san patricio,28.017,-97.5169,29.97,80,100,5.08,US,1698358437
399,touros,-5.1989,-35.4608,27.25,67,72,5.38,BR,1698358259
400,ambon,-3.6954,128.1814,29.4,58,97,4.12,ID,1698358437
401,cadale,2.7603,46.3222,27.56,79,35,4.26,SO,1698358437
402,bam,29.106,58.357,23.39,33,100,2.87,IR,1698358437
403,sanctuary point,-35.1114,150.629,13.75,62,98,5.66,AU,1698358437
404,sampit,-2.5333,112.95,22.86,92,65,0.3,ID,1698358438
405,mogocha,53.7333,119.7667,-5.71,56,29,0.58,RU,1698358438
406,queenstown,-31.8976,26.8753,18.73,41,82,0.5,ZA,1698358174
407,bluefields,12.0137,-83.7635,27.04,94,40,0.0,NI,1698358438
408,kolonia,50.9333,6.95,11.09,91,75,3.6,DE,1698358188
409,bathsheba,13.2167,-59.5167,25.34,94,75,4.12,BB,1698358438
410,port blair,11.6667,92.75,25.02,100,40,0.0,IN,1698358438
411,ola,59.5833,151.2833,-3.95,64,62,2.78,RU,1698358250
412,cockburn town,21.4612,-71.1419,27.69,70,1,9.8,TC,1698358439
413,ganjam,19.3833,85.0667,24.02,75,4,1.97,IN,1698358439
414,harar,9.3094,42.1258,15.37,90,96,1.32,ET,1698358439
415,la passe,45.5549,-0.8967,14.99,80,70,9.21,FR,1698358439
416,saldanha,-33.0117,17.9442,12.03,88,33,1.38,ZA,1698358439
417,dudinka,69.4058,86.1778,-12.96,99,65,1.34,RU,1698358165
418,sao vicente,-23.9631,-46.3919,23.1,59,100,1.34,BR,1698358440
419,mount gambier,-37.8333,140.7667,10.07,68,8,2.86,AU,1698358203
420,ceres,37.5949,-120.9577,20.44,50,0,6.17,US,1698358440
421,hammerfest,70.6634,23.6821,-2.75,80,40,3.6,NO,1698358440
422,almagro,38.8894,-3.7113,14.91,89,99,7.84,ES,1698358440
423,mulki,13.1,74.8,25.6,88,47,0.0,IN,1698358157
424,palembang,-2.9167,104.7458,24.05,100,40,1.03,ID,1698358441
425,chengam,12.3,78.8,22.21,91,47,1.0,IN,1698358441
426,maryborough,-25.5333,152.7,16.13,60,100,2.85,AU,1698358441
427,port moresby,-9.4431,147.1797,27.68,78,40,2.57,PG,1698358441
428,betong,5.7743,101.0723,22.14,99,100,0.53,TH,1698358441
429,myeik,12.4333,98.6,25.13,90,100,1.83,MM,1698358441
430,fortuna,40.5982,-124.1573,15.75,62,0,5.14,US,1698358271
431,bardsir,29.9227,56.5743,12.6,64,100,6.02,IR,1698358442
432,coxen hole,16.3244,-86.5366,27.6,78,20,4.12,HN,1698358442
433,bamboo flat,11.7,92.7167,25.05,100,40,0.0,IN,1698358442
434,road town,18.4167,-64.6167,29.05,74,20,1.54,VG,1698358443
435,mwinilunga,-11.7358,24.4293,21.25,59,99,1.51,ZM,1698358443
436,selfoss,63.9331,-20.9971,2.8,77,75,2.8,IS,1698358443
437,alexandria,31.2156,29.9553,24.45,73,100,2.53,EG,1698358228
438,vredendal,-31.6683,18.5012,14.15,90,4,2.94,ZA,1698358443
439,remire-montjoly,4.9167,-52.2667,28.02,83,0,3.6,GF,1698358444
440,dire dawa,9.5931,41.8661,20.76,78,97,1.61,ET,1698358444
441,nemyriv,48.9708,28.8378,12.45,89,99,3.11,UA,1698358444
442,mizdah,31.4451,12.9801,20.31,41,0,2.79,LY,1698358444
443,amga,60.8953,131.9608,-16.44,100,99,0.57,RU,1698358444
444,buka,40.8108,69.1986,14.78,67,100,0.44,UZ,1698358445
445,kourou,5.1552,-52.6478,28.03,79,90,4.8,GF,1698358445
446,santa cruz,-17.8,-63.1667,25.7,73,75,3.6,BO,1698358445
447,conception bay south,47.4999,-52.9981,10.25,92,98,2.02,CA,1698358445
448,huarmey,-10.0681,-78.1522,20.9,77,51,4.39,PE,1698358445
449,namdrik,5.5994,168.1028,29.04,71,80,3.65,MH,1698358446
450,las veredas,23.1388,-109.7075,28.97,45,20,5.14,MX,1698358446
451,constitucion,-35.3333,-72.4167,14.11,72,5,5.16,CL,1698358446
452,carbonear,47.7332,-53.2148,10.64,85,100,2.02,CA,1698358446
453,illizi,26.4833,8.4667,24.89,27,0,2.66,DZ,1698358446
454,pinarbasi,38.7229,36.3931,12.47,61,100,2.32,TR,1698358447
455,isfara,40.1265,70.6253,12.22,59,100,0.59,TJ,1698358447
456,kerikeri,-35.2268,173.9474,18.84,87,89,1.34,NZ,1698358159
457,choibalsan,48.0667,114.5,0.49,40,12,1.55,MN,1698358447
458,canico,32.6333,-16.85,22.62,82,20,2.57,PT,1698358447
459,shakawe,-18.3667,21.85,25.22,37,82,1.56,BW,1698358448
460,tamiahua,21.2667,-97.45,28.39,78,95,4.21,MX,1698358448
461,laguna,38.421,-121.4238,21.83,40,0,3.6,US,1698358448
462,vorkuta,67.5,64.0,-10.34,96,100,2.77,RU,1698358448
463,tadine,-21.55,167.8833,23.93,91,92,9.1,NC,1698358449
464,saint-denis,48.9167,2.3333,12.64,95,100,3.6,FR,1698358449
465,mariveles,14.4833,120.4833,22.98,85,100,2.83,PH,1698358449
466,pajeczno,51.1445,18.9961,8.71,85,72,3.43,PL,1698358449
467,siavonga,-16.5382,28.7088,28.53,51,0,1.81,ZM,1698358450
468,parfino,57.9731,31.6481,-0.27,63,100,4.32,RU,1698358450
469,tannum sands,-23.9504,151.3693,23.75,15,40,3.6,AU,1698358450
470,meulaboh,4.1363,96.1285,24.28,90,100,1.54,ID,1698358450
471,mzuzu,-11.4656,34.0207,20.78,59,55,0.47,MW,1698358450
472,ta`u,-14.2336,-169.5144,26.32,80,100,7.48,AS,1698358262
473,ambodifotatra,-16.9833,49.85,25.0,86,42,5.01,MG,1698358451
474,nalut,30.3333,10.85,20.73,28,1,1.38,LY,1698358451
475,maun,-19.9833,23.4167,25.98,44,0,2.06,BW,1698358451
476,kupang,-10.1667,123.5833,24.32,83,20,2.06,ID,1698358451
477,hailey,43.5196,-114.3153,4.92,45,0,6.71,US,1698358451
478,palmas,-10.2128,-48.3603,26.93,74,40,3.6,BR,1698358452
479,tayu,-6.5397,111.0518,25.43,81,10,3.42,ID,1698358452
480,masterton,-40.9597,175.6575,12.11,56,17,6.99,NZ,1698358156
481,saint-philippe,-21.3585,55.7679,23.77,84,8,2.75,RE,1698358452
482,flin flon,54.7682,-101.865,-2.09,50,100,2.57,CA,1698358452
483,juneau,58.3019,-134.4197,7.83,76,0,2.06,US,1698358453
484,verdal,63.7933,11.4817,-2.98,79,23,1.63,NO,1698358453
485,emerald,-23.5333,148.1667,17.97,21,0,10.51,AU,1698358453
486,kismayo,-0.3582,42.5454,26.4,83,16,5.06,SO,1698358453
487,novyy urengoy,66.0833,76.6333,-9.71,87,99,6.16,RU,1698358453
488,pyt-yakh,60.7499,72.8582,-5.19,93,100,5.83,RU,1698358453
489,nelson,-41.2833,173.2833,12.38,65,66,0.45,NZ,1698358454
490,morwell,-38.2333,146.4,11.33,60,6,1.32,AU,1698358454
491,valdivia,-39.8142,-73.2459,12.91,73,60,2.38,CL,1698358454
492,bubaque,11.2833,-15.8333,28.13,80,57,5.72,GW,1698358157
493,lazaro cardenas,17.9583,-102.2,28.15,79,97,3.86,MX,1698358454
494,glubokoye,50.1456,82.3114,0.4,93,100,4.23,KZ,1698358455
495,dhemaji,27.4833,94.5833,18.75,93,0,1.45,IN,1698358455
496,manaure,11.7751,-72.4445,28.53,77,98,4.92,CO,1698358455
497,vadso,70.0744,29.7487,-1.91,86,75,1.54,NO,1698358455
498,egilsstadir,65.2653,-14.3948,1.95,93,75,3.09,IS,1698358455
499,pariaman,-0.619,100.12,23.03,91,100,1.74,ID,1698358440
500,duminichi,53.9345,35.1099,-1.54,95,100,4.27,RU,1698358456
501,santa barbara,34.7333,-120.0343,20.17,52,100,6.69,US,1698358371
502,hami,42.8,93.45,13.11,28,6,1.99,CN,1698358456
503,edson,53.5835,-116.4356,-4.92,68,100,4.63,CA,1698358456
504,dongola,19.1667,30.4833,29.71,23,0,5.77,SD,1698358457
505,mosjoen,65.836,13.1908,-1.71,93,75,0.0,NO,1698358457
506,caleta de carquin,-11.0925,-77.6267,20.71,76,56,4.74,PE,1698358457
507,basirpur,30.5832,73.829,22.44,31,0,1.71,PK,1698358229
508,tulun,54.5611,100.5792,2.85,82,90,2.55,RU,1698358458
509,ilha de mocambique,-15.0342,40.7358,25.86,87,0,1.41,MZ,1698358458
510,tucuma,-0.1833,-50.05,27.55,68,10,4.39,BR,1698358458
511,mandvi,22.8333,69.3667,26.8,69,8,4.39,IN,1698358459
512,chipinge,-20.1883,32.6236,16.64,93,13,2.18,ZW,1698358459
513,santo antonio,-6.3106,-35.4789,24.62,74,53,2.93,BR,1698358459
514,mawlamyinegyunn,16.3833,95.2667,24.64,89,100,1.6,MM,1698358459
515,ketchikan,55.3422,-131.6461,11.26,20,0,2.06,US,1698358459
516,saint-joseph,-21.3667,55.6167,23.21,84,5,0.72,RE,1698358460
517,ha'il,27.5219,41.6907,21.01,68,0,3.09,SA,1698358460
518,malango,-2.9627,119.9001,17.4,64,9,1.15,ID,1698358460
519,santarem,-2.4431,-54.7083,32.07,48,0,4.12,BR,1698358460
520,sarandi del yi,-33.35,-55.6333,15.31,68,1,3.61,UY,1698358461
521,tsetserleg,47.475,101.4542,2.31,31,36,2.65,MN,1698358461
522,atherton,53.5237,-2.4935,10.24,95,99,2.26,GB,1698358461
523,puerto san jose,13.9256,-90.8244,28.38,81,100,3.23,GT,1698358193
524,mili,6.0815,171.735,28.98,74,67,4.75,MH,1698358462
525,burabay,53.0838,70.3138,-3.81,71,6,6.57,KZ,1698358462
526,rio preto da eva,-2.6994,-59.6997,31.37,47,39,0.67,BR,1698358234
527,eforie sud,44.0229,28.6494,14.45,71,70,4.22,RO,1698358462
528,sinabang,2.4803,96.3801,25.64,83,98,1.68,ID,1698358463
529,pacific grove,36.6177,-121.9166,19.58,63,0,5.81,US,1698358311
530,anacapri,40.5558,14.2136,20.08,85,97,6.76,IT,1698358463
531,vila do maio,15.1333,-23.2167,27.44,82,97,8.08,CV,1698358463
532,guanica,17.9716,-66.908,29.47,62,48,1.95,PR,1698358463
533,santa cruz verapaz,15.3667,-90.4333,22.42,83,75,2.06,GT,1698358463
534,lewistown,40.5992,-77.5714,23.41,60,0,0.0,US,1698358464
535,manggar,-2.8833,108.2667,27.56,70,100,5.09,ID,1698358464
536,cassilandia,-19.1133,-51.7342,28.88,49,60,2.25,BR,1698358464
537,bahia honda,22.9036,-83.1592,26.75,76,57,7.92,CU,1698358464
538,kimbe,-5.5502,150.1429,26.24,83,100,1.33,PG,1698358464
539,alik ghund,30.4896,67.5226,9.87,34,32,1.14,PK,1698358464
540,sironj,24.1,77.7,20.36,38,0,1.39,IN,1698358465
541,iwanai,42.9744,140.5089,10.23,88,68,2.38,JP,1698358465
542,torghay,49.6339,63.4981,-0.41,59,51,2.25,KZ,1698358465
543,irymple,-34.25,142.1667,12.83,62,0,0.89,AU,1698358465
544,ormara,25.2088,64.6357,27.01,75,97,6.8,PK,1698358465
545,dubovskoye,47.4092,42.7575,13.42,95,98,2.99,RU,1698358466
546,berezovyy,51.6667,135.7,-0.32,69,90,3.56,RU,1698358466
547,granville,-33.8333,151.0167,16.63,80,75,9.77,AU,1698358252
548,luau,-10.7073,22.2247,22.06,62,89,2.09,AO,1698358466
549,kisangani,0.5167,25.2,20.91,100,93,1.16,CD,1698358466
550,muroto-misakicho,33.2833,134.15,19.66,59,0,3.85,JP,1698358466
551,progreso,21.2833,-89.6667,31.73,69,13,8.44,MX,1698358467
552,pitimbu,-7.4706,-34.8086,25.33,83,34,3.5,BR,1698358467
553,darwin,-12.4611,130.8418,28.86,78,20,0.0,AU,1698358467
554,aberdeen,57.1437,-2.0981,11.27,94,100,7.72,GB,1698358449
555,suva,-18.1416,178.4415,26.71,74,75,5.52,FJ,1698358467
556,novyy chirkey,43.162,47.0559,17.57,75,100,1.81,RU,1698358468
557,terralba,39.7192,8.6392,20.1,90,100,4.22,IT,1698358468
558,ulladulla,-35.35,150.4667,13.76,53,92,5.65,AU,1698358249
559,mbanza-ngungu,-5.25,14.8667,22.02,86,99,1.97,CD,1698358468
560,bonthe,7.5264,-12.505,26.0,88,67,1.93,SL,1698358468
561,beohari,24.05,81.3833,16.7,54,0,1.84,IN,1698358468
562,dunedin,-45.8742,170.5036,6.56,63,22,5.36,NZ,1698358468
563,del rio,29.3627,-100.8968,33.01,51,0,4.63,US,1698358469
564,rancharia,-22.2292,-50.8931,19.23,93,91,4.92,BR,1698358194
565,luganville,-15.5333,167.1667,28.16,73,100,1.62,VU,1698358469
566,barpathar,26.3,93.8667,19.03,96,2,1.01,IN,1698358469
567,qutqashen,40.9814,47.8458,12.11,52,98,1.67,AZ,1698358469
568,callao,-12.0667,-77.15,23.18,68,40,3.6,PE,1698358469
569,kalashnikovo,57.2824,35.2262,-1.8,69,100,4.64,RU,1698358470
570,novo aripuana,-5.1206,-60.3797,27.73,73,84,1.59,BR,1698358470
571,bomdila,27.25,92.4,7.01,92,8,2.89,IN,1698358470
572,aur,8.1499,171.1687,28.67,75,48,4.88,MH,1698358470
573,barrie,44.4001,-79.6663,17.24,97,100,1.54,CA,1698358470
574,nagqu,31.5,92.0,-5.72,95,86,1.41,CN,1698358471
575,aconibe,1.2968,10.9369,20.03,99,93,0.64,GQ,1698358471
576,lerwick,60.1545,-1.1494,9.0,74,100,8.73,GB,1698358471
577,vetluga,57.8557,45.781,-4.81,89,42,1.62,RU,1698358471
578,revelstoke,50.9832,-118.2023,5.01,48,100,4.63,CA,1698358471
579,sayyan,15.1718,44.3244,12.93,80,100,0.73,YE,1698358472
580,roswell,34.0232,-84.3616,24.73,62,40,3.6,US,1698358378
581,kuanda,56.3161,116.0806,-4.53,58,78,0.52,RU,1698358472
582,matadi,-5.8167,13.45,25.38,88,76,3.12,CD,1698358472
583,punta alta,-38.8759,-62.0736,20.43,45,20,9.26,AR,1698358472
584,torres,-29.3353,-49.7269,17.68,75,29,2.54,BR,1698358393
585,nouadhibou,20.931,-17.0347,23.99,60,30,3.6,MR,1698358473
