City_ID,City,Lat,Lng,Max Temp,Humidity,Cloudiness,Wind Speed,Country,Date
0,chibougamau,49.9168,-74.3659,7.79,93,100,3.09,CA,1698276348
1,wailua homesteads,22.0669,-159.378,27.29,69,100,4.63,US,1698276873
2,puerto aysen,-45.4,-72.7,8.46,94,100,2.65,CL,1698276979
3,gamba,-2.65,10.0,23.6,92,100,2.04,GA,1698276979
4,hinton,53.4001,-117.5857,-5.14,71,23,1.39,CA,1698276979
5,egilsstadir,65.2653,-14.3948,0.95,93,75,1.03,IS,1698276979
6,waitangi,-43.9535,-176.5597,12.71,89,21,8.08,NZ,1698276980
7,havre,49.5833,0.3333,11.87,82,0,2.06,FR,1698276980
8,invercargill,-46.4,168.35,9.45,75,76,9.39,NZ,1698276980
9,waingapu,-9.6567,120.2641,29.11,52,8,1.25,ID,1698276980
10,callao,-12.0667,-77.15,20.4,73,100,6.17,PE,1698276490
11,ribeira grande,38.5167,-28.7,18.21,76,100,3.13,PT,1698276980
12,nikolayevsk-on-amure,53.1406,140.73,3.99,68,48,2.23,RU,1698276981
13,crane,31.3974,-102.3501,23.34,47,0,0.71,US,1698276981
14,mtambile,-5.3833,39.7,26.06,83,17,1.62,TZ,1698276981
15,broken hill,-31.95,141.4333,12.19,37,0,10.17,AU,1698276981
16,punta arenas,-53.15,-70.9167,4.06,87,75,10.29,CL,1698276981
17,adamstown,-25.066,-130.1015,22.68,82,57,6.29,PN,1698276982
18,uvinza,-5.1036,30.3911,21.39,82,93,1.91,TZ,1698276982
19,kingston,17.997,-76.7936,25.53,92,75,1.54,JM,1698276982
20,papatowai,-46.5619,169.4708,6.86,90,83,7.9,NZ,1698276982
21,port alfred,-33.5906,26.891,16.21,88,49,1.79,ZA,1698276982
22,grytviken,-54.2811,-36.5092,1.02,82,49,5.78,GS,1698276982
23,yellowknife,62.456,-114.3525,-1.44,93,100,5.14,CA,1698276964
24,ribadesella,43.4614,-5.0596,19.41,81,99,1.78,ES,1698276983
25,pariaman,-0.619,100.12,23.03,86,89,1.56,ID,1698276971
26,praia da vitoria,38.7333,-27.0667,18.2,94,75,9.11,PT,1698276983
27,edinburgh of the seven seas,-37.0676,-12.3116,11.04,57,40,6.48,SH,1698276983
28,west island,-12.1568,96.8225,25.99,83,75,7.2,CC,1698276983
29,onega,63.9061,38.1404,-1.2,84,23,1.95,RU,1698276984
30,zemio,5.0314,25.1361,21.34,97,100,0.92,CF,1698276984
31,port-aux-francais,-49.35,70.2167,4.3,94,100,2.27,TF,1698276984
32,olonkinbyen,70.9221,-8.7187,0.4,78,100,4.61,SJ,1698276984
33,blackmans bay,-43.0167,147.3167,11.4,66,91,2.24,AU,1698276984
34,college,64.8569,-147.8028,2.11,76,40,3.09,US,1698276985
35,ballina,-28.8667,153.5667,22.66,73,90,6.73,AU,1698276985
36,klaksvik,62.2266,-6.589,8.51,88,86,9.44,FO,1698276985
37,ushuaia,-54.8,-68.3,3.81,87,75,9.77,AR,1698276687
38,jamestown,42.097,-79.2353,18.8,45,100,3.6,US,1698276985
39,guerrero negro,27.9769,-114.0611,20.19,68,0,7.42,MX,1698276985
40,portland,45.5234,-122.6762,10.34,86,75,5.14,US,1698276746
41,albany,42.6001,-73.9662,17.66,70,95,1.21,US,1698276106
42,bilibino,68.0546,166.4372,-13.16,97,91,1.0,RU,1698276986
43,yeniseysk,58.4497,92.1703,1.64,97,100,4.02,RU,1698276986
44,alice springs,-23.7,133.8833,17.75,20,0,9.77,AU,1698276986
45,orsa,54.5153,30.4053,-0.04,78,100,7.41,BY,1698276986
46,hithadhoo,-0.6,73.0833,27.75,77,45,6.89,MV,1698276986
47,puerto natales,-51.7236,-72.4875,2.02,99,100,1.55,CL,1698276987
48,aasiaat,68.7098,-52.8699,-9.63,81,96,3.78,GL,1698276987
49,udachny,66.4167,112.4,-15.55,96,48,3.12,RU,1698276987
50,rumoi,43.9344,141.6428,13.81,76,4,2.11,JP,1698276987
51,margaret river,-33.95,115.0667,17.1,73,88,4.43,AU,1698276704
52,georgetown,5.4112,100.3354,26.12,92,20,1.03,MY,1698276738
53,qamdo,31.1667,97.2333,-3.73,58,32,0.87,CN,1698276988
54,bardai,11.65,7.2333,23.0,27,100,1.65,NG,1698276988
55,uijeongbu-si,37.7415,127.0474,15.81,83,95,1.54,KR,1698276988
56,radnevo,42.3,25.9333,20.26,68,100,1.25,BG,1698276988
57,shache,38.4167,77.2406,10.77,32,27,2.63,CN,1698276988
58,tiksi,71.6872,128.8694,-11.86,95,97,1.85,RU,1698276989
59,ust-tsilma,65.441,52.1498,-2.99,95,100,2.68,RU,1698276989
60,hawaiian paradise park,19.5933,-154.9731,28.35,80,100,4.12,US,1698276989
61,paka,4.6374,103.4368,23.96,94,20,0.0,MY,1698276989
62,puerto ayora,-0.7393,-90.3518,23.64,95,97,3.58,EC,1698276989
63,sydney,-33.8679,151.2073,15.69,82,75,10.29,AU,1698276310
64,fuglafjordur,62.244,-6.814,8.26,87,81,8.47,FO,1698276990
65,afaahiti,-17.75,-149.2833,25.93,77,99,1.9,PF,1698276990
66,prachuap khiri khan,12.2167,99.75,22.96,94,93,0.68,TH,1698276990
67,tlaltenango de sanchez roman,21.7833,-103.3167,22.8,50,82,3.15,MX,1698276990
68,gao,16.6362,1.637,26.8,11,62,4.51,ML,1698276990
69,baniachang,24.5167,91.3667,21.1,98,23,1.39,BD,1698276990
70,qaqortoq,60.7167,-46.0333,0.76,74,100,2.54,GL,1698276991
71,salekhard,66.53,66.6019,-10.84,93,47,2.97,RU,1698276991
72,kodiak,57.79,-152.4072,7.73,66,75,5.66,US,1698276991
73,tralee,52.2704,-9.7026,9.54,95,52,2.41,IE,1698276991
74,iqaluit,63.7506,-68.5145,-9.15,72,75,2.06,CA,1698276991
75,george town,5.4112,100.3354,28.43,93,20,1.03,MY,1698276889
76,lucaya,26.5333,-78.6667,24.96,65,20,5.14,BS,1698276991
77,pangody,65.85,74.4859,-7.43,96,85,3.58,RU,1698276992
78,ishigaki,24.3448,124.1572,25.07,78,20,1.54,JP,1698276992
79,ramtek,21.4,79.3333,18.42,57,9,1.83,IN,1698276992
80,ilam,26.9167,87.9167,14.77,71,0,2.51,NP,1698276992
81,nouadhibou,20.931,-17.0347,25.99,53,0,8.75,MR,1698276992
82,atafu village,-8.5421,-172.5159,28.36,77,52,5.81,TK,1698276992
83,sitka,57.0531,-135.33,7.94,49,0,1.54,US,1698276992
84,port elizabeth,-33.918,25.5701,17.16,89,0,4.12,ZA,1698276993
85,rockland,41.1668,-74.0496,20.8,71,38,2.08,US,1698276757
86,forster,-32.1667,152.5167,15.16,97,100,7.16,AU,1698276993
87,carnarvon,-24.8667,113.6333,21.45,71,0,8.72,AU,1698276993
88,bethel,41.3712,-73.414,18.68,70,67,2.03,US,1698276963
89,alliance,40.9153,-81.1059,19.82,61,91,3.38,US,1698276919
90,paks,46.6265,18.8596,15.88,70,87,4.17,HU,1698276993
91,touros,-5.1989,-35.4608,24.74,79,19,5.23,BR,1698276778
92,suva,-18.1416,178.4415,25.71,69,75,6.17,FJ,1698276994
93,stanley,54.868,-1.6985,9.74,95,100,3.6,GB,1698276994
94,dalkola,25.85,87.85,21.61,79,17,2.04,IN,1698276994
95,lebu,-37.6167,-73.65,10.89,85,0,9.77,CL,1698276994
96,taoudenni,22.6783,-3.9836,30.84,21,62,4.87,ML,1698276994
97,igrim,63.1906,64.4162,-4.99,89,100,4.9,RU,1698276994
98,mokrous,51.2333,47.5167,-2.68,62,52,1.57,RU,1698276995
99,ugoofaaru,5.6667,73.0,27.79,75,70,2.98,MV,1698276995
100,hasaki,35.7333,140.8333,16.27,58,2,6.23,JP,1698276995
101,duminichi,53.9345,35.1099,-1.07,71,100,5.68,RU,1698276995
102,chonchi,-42.6128,-73.8092,13.56,93,58,1.52,CL,1698276995
103,amnat charoen,15.9167,104.75,23.49,91,80,2.87,TH,1698276995
104,nar'yan-mar,67.6713,53.087,-3.83,87,100,3.58,RU,1698276996
105,kashgar,39.4547,75.9797,12.56,28,0,4.0,CN,1698276996
106,puerto madryn,-42.7692,-65.0385,16.98,36,0,6.53,AR,1698276996
107,bardsir,29.9227,56.5743,13.56,55,36,2.64,IR,1698276996
108,squamish,49.7014,-123.1512,12.27,19,4,5.66,CA,1698276996
109,revda,56.801,59.9303,-6.97,94,84,3.93,RU,1698276996
110,santa cruz,-17.8,-63.1667,31.03,58,75,3.6,BO,1698276997
111,codrington,-38.2667,141.9667,12.21,61,91,6.55,AU,1698276997
112,badger,64.8,-147.5333,2.06,79,75,3.09,US,1698276997
113,port lincoln,-34.7333,135.8667,14.14,50,6,6.05,AU,1698276997
114,bredasdorp,-34.5322,20.0403,13.77,87,100,1.43,ZA,1698276997
115,kapuskasing,49.4169,-82.4331,2.05,100,100,1.54,CA,1698276936
116,whitehorse,60.7161,-135.0538,0.43,59,75,3.6,CA,1698276718
117,ban houakhoua,20.2453,100.4547,21.65,98,62,0.29,LA,1698276997
118,rio grande,-32.035,-52.0986,17.06,78,77,6.06,BR,1698276998
119,port mathurin,-19.6833,63.4167,24.69,78,7,6.76,MU,1698276998
120,tazacorte,28.629,-17.9293,23.54,87,100,3.6,ES,1698276998
121,cabo san lucas,22.8909,-109.9124,27.17,53,40,6.17,MX,1698276850
122,kolosovka,56.4678,73.611,-0.19,96,100,7.48,RU,1698276998
123,popondetta,-8.7537,148.2534,30.24,63,100,1.25,PG,1698276998
124,hovd,48.0056,91.6419,3.95,27,48,2.74,MN,1698276998
125,kibre mengist,5.8833,38.9833,15.27,97,99,0.66,ET,1698276999
126,alta,69.9689,23.2717,-4.41,83,100,31.74,NO,1698276999
127,ghat,24.9647,10.1728,26.39,18,96,0.99,LY,1698276999
128,nishinoomote,30.7333,131.0,20.31,68,20,3.09,JP,1698276999
129,bedele,8.456,36.353,13.84,98,100,0.71,ET,1698276999
130,east london,-33.0153,27.9116,17.19,81,55,6.35,ZA,1698277000
131,el calafate,-50.3408,-72.2768,6.65,84,47,5.29,AR,1698277000
132,tomatlan,19.9333,-105.25,25.94,80,3,3.1,MX,1698277000
133,isafjordur,66.0755,-23.124,2.69,90,89,3.17,IS,1698277000
134,badagara,11.6,75.5833,24.55,87,14,1.66,IN,1698277000
135,colonia,50.9333,6.95,11.14,93,100,6.69,DE,1698277000
136,vadso,70.0744,29.7487,-4.51,89,100,6.16,NO,1698277000
137,viedma,-40.8135,-62.9967,13.11,69,0,6.03,AR,1698277001
138,new norfolk,-42.7826,147.0587,12.06,57,79,4.29,AU,1698277001
139,sandnessjoen,66.0217,12.6316,1.29,83,100,4.46,NO,1698277001
140,ust-nera,64.5667,143.2,-19.55,97,89,1.15,RU,1698277001
141,saurimo,-9.6608,20.3916,17.87,96,100,2.12,AO,1698277001
142,avarua,-21.2078,-159.775,22.03,56,100,4.63,CK,1698277001
143,uliastay,47.7417,96.8444,1.58,37,9,2.59,MN,1698277002
144,ancud,-41.8697,-73.8203,9.52,84,68,4.0,CL,1698277002
145,borgarnes,64.5383,-21.9206,7.03,86,73,4.38,IS,1698277002
146,fort st. john,56.2499,-120.8529,-7.06,73,100,2.06,CA,1698277002
147,lethem,3.3803,-59.7968,28.86,62,68,1.25,GY,1698277002
148,primorskiy,43.0983,131.5875,13.84,76,91,1.81,RU,1698277002
149,vorgashor,67.5833,63.95,-17.17,99,100,1.25,RU,1698277002
150,fale old settlement,-9.3852,-171.2468,28.29,77,63,7.09,TK,1698277003
151,dudinka,69.4058,86.1778,-8.51,96,100,1.34,RU,1698277003
152,vanimo,-2.6741,141.3028,29.1,70,100,0.8,PG,1698277003
153,pont rouge,48.8833,-72.0825,10.16,95,100,1.39,CA,1698277003
154,westport,41.1415,-73.3579,18.94,77,0,2.06,US,1698276959
155,pacific grove,36.6177,-121.9166,20.57,75,20,4.63,US,1698277003
156,klyuchi,52.2667,79.1667,12.09,60,100,7.46,RU,1698277003
157,brisas de zicatela,15.8369,-97.0419,29.29,58,75,3.09,MX,1698277003
158,bure,10.7,37.0667,13.11,90,99,1.63,ET,1698277004
159,aykhal,66.0,111.5,-14.97,100,98,3.32,RU,1698277004
160,mugia,43.1041,-9.2179,19.39,96,100,7.93,ES,1698277004
161,thompson,55.7435,-97.8558,-1.91,64,75,4.63,CA,1698277004
162,dul'durga,50.6761,113.5931,-3.69,50,54,1.46,RU,1698277004
163,soderhamn,61.3037,17.0592,0.53,80,98,2.2,SE,1698276733
164,lihue,21.9789,-159.3672,28.19,67,100,4.63,US,1698277004
165,tainan,22.9908,120.2133,27.15,88,75,0.0,TW,1698277005
166,aquin,18.2833,-73.4,26.8,80,58,3.28,HT,1698277005
167,richards bay,-28.783,32.0377,18.69,80,34,0.83,ZA,1698277005
168,lionel town,17.8101,-77.2406,25.94,79,42,3.5,JM,1698277005
169,peace river,56.2501,-117.286,-4.83,73,100,2.06,CA,1698277005
170,las tablas,7.7667,-80.2833,25.3,88,100,1.67,PA,1698277005
171,vilyuchinsk,52.9306,158.4028,5.15,63,53,9.32,RU,1698277005
172,grootfontein,-19.5667,18.1167,20.76,26,50,1.03,NA,1698277006
173,alofi,-19.0595,-169.9187,24.94,65,75,7.2,NU,1698277006
174,mossel bay,-34.1831,22.146,12.96,88,100,2.07,ZA,1698277006
175,bonthe,7.5264,-12.505,25.63,86,82,1.85,SL,1698277006
176,bathsheba,13.2167,-59.5167,28.34,83,40,4.63,BB,1698277006
177,hermoso campo,-27.6082,-61.3444,22.84,70,98,2.71,AR,1698277006
178,lompoc,34.6391,-120.4579,22.79,70,13,6.26,US,1698277006
179,ad dilam,23.9915,47.1627,26.23,56,0,1.61,SA,1698277006
180,happy valley-goose bay,53.3168,-60.3315,6.17,65,75,2.06,CA,1698277007
181,xai-xai,-25.0519,33.6442,19.39,77,0,2.57,MZ,1698277007
182,itoman,26.1247,127.6694,25.01,72,75,4.12,JP,1698277007
183,charters towers,-20.1,146.2667,29.97,33,2,2.32,AU,1698277007
184,greymouth,-42.4667,171.2,12.13,92,100,6.57,NZ,1698277007
185,bangassou,4.7413,22.8184,21.2,99,100,1.34,CF,1698277007
186,salalah,17.0151,54.0924,26.05,89,75,1.03,OM,1698277007
187,spring creek,40.7266,-115.5859,9.83,77,100,6.72,US,1698276721
188,longyearbyen,78.2186,15.6401,-6.09,86,0,4.12,SJ,1698276866
189,ha'il,27.5219,41.6907,18.01,72,0,3.09,SA,1698277008
190,utrik,11.2278,169.8474,27.44,71,60,3.88,MH,1698277008
191,saipan,15.1355,145.701,28.39,89,75,4.63,MP,1698277008
192,acarau,-2.8856,-40.12,25.65,79,15,6.8,BR,1698277008
193,hermanus,-34.4187,19.2345,15.64,81,100,2.31,ZA,1698277008
194,whakatane,-37.9585,176.9854,21.4,78,52,3.13,NZ,1698276780
195,benghazi,32.1167,20.0667,25.43,48,100,4.22,LY,1698277009
196,anna regina,7.2644,-58.5077,27.78,81,72,4.06,GY,1698277009
197,comodoro rivadavia,-45.8667,-67.5,17.92,27,0,13.38,AR,1698277009
198,talnakh,69.4865,88.3972,-8.77,96,100,0.41,RU,1698277009
199,kerikeri,-35.2268,173.9474,24.39,76,7,1.79,NZ,1698277009
200,la passe,45.5549,-0.8967,18.13,86,100,6.87,FR,1698277009
201,gaigeturi,33.4644,126.3183,19.03,72,0,4.12,KR,1698277009
202,vila franca do campo,37.7167,-25.4333,22.16,99,94,4.65,PT,1698277010
203,queenstown,-31.8976,26.8753,11.83,83,8,0.29,ZA,1698277010
204,anadyr,64.75,177.4833,3.28,100,100,9.0,RU,1698277010
205,luderitz,-26.6481,15.1594,17.06,76,1,1.84,NA,1698277010
206,sinop,41.7711,34.8709,17.7,43,100,3.93,TR,1698277010
207,sorong,-0.8833,131.25,27.41,75,98,5.81,ID,1698277010
208,bubaque,11.2833,-15.8333,28.48,75,100,3.97,GW,1698277011
209,wapakoneta,40.5678,-84.1936,19.88,67,40,3.6,US,1698277011
210,walvis bay,-22.9575,14.5053,15.61,88,58,4.63,NA,1698277011
211,toamasina,-18.1667,49.3833,22.0,94,40,3.09,MG,1698277011
212,anzio,41.4853,12.6179,19.7,84,64,1.54,IT,1698277011
213,vernon,50.2581,-119.2691,7.01,42,68,3.58,CA,1698277012
214,kupino,54.3663,77.2981,9.92,76,100,8.12,RU,1698277012
215,luganville,-15.5333,167.1667,28.9,73,98,4.17,VU,1698277012
216,juybar,36.6412,52.9124,17.15,85,16,1.53,IR,1698277012
217,hobyo,5.3505,48.5268,27.77,78,91,3.62,SO,1698277012
218,coahuayana de hidalgo,18.7,-103.6583,26.36,83,100,1.57,MX,1698277012
219,lubumbashi,-11.6609,27.4794,23.34,45,90,1.03,CD,1698277012
220,sungai raya,0.7,108.9,26.93,79,94,2.48,ID,1698277013
221,santanyi,39.3546,3.1291,22.66,70,84,9.67,ES,1698277013
222,uglegorsk,49.0833,142.0333,7.0,80,89,3.92,RU,1698277013
223,prince rupert,54.3161,-130.3201,9.05,39,0,4.12,CA,1698276959
224,charlottetown,46.2352,-63.1267,14.29,86,75,5.66,CA,1698276991
225,altai,46.3722,96.2583,2.02,21,2,2.26,MN,1698277013
226,semikarakorsk,47.5194,40.8112,9.48,85,100,5.15,RU,1698277013
227,melilla,35.2937,-2.9383,21.21,68,0,3.09,ES,1698276754
228,ulladulla,-35.35,150.4667,15.98,44,8,6.43,AU,1698277014
229,swakopmund,-22.6833,14.5333,15.55,87,35,2.24,NA,1698277014
230,acajutla,13.5928,-89.8275,26.56,84,100,1.51,SV,1698277014
231,neya,58.2972,43.8681,-1.39,79,100,1.73,RU,1698277014
232,yeraliyev,43.2,51.65,11.55,67,92,3.34,KZ,1698277014
233,bamboo flat,11.7,92.7167,24.05,100,40,1.03,IN,1698277014
234,bundi,25.4417,75.6417,21.32,38,0,0.35,IN,1698277014
235,republic,37.12,-93.4802,23.89,65,0,6.17,US,1698277015
236,ashkelon,31.6693,34.5715,20.94,48,1,0.99,IL,1698277015
237,taltal,-25.4,-70.4833,17.24,73,20,2.19,CL,1698276621
238,asia,9.5506,122.5164,28.02,76,32,1.35,PH,1698277015
239,tynda,55.1667,124.7167,-3.44,70,97,3.41,RU,1698276942
240,melfort,52.8667,-104.6177,-4.93,54,6,2.06,CA,1698277015
241,pascagoula,30.3658,-88.5561,25.0,81,0,3.6,US,1698277015
242,sainte-suzanne,-20.9061,55.6089,23.12,80,20,4.63,RE,1698277016
243,haiku-pauwela,20.9219,-156.3051,28.01,61,20,5.66,US,1698277016
244,ponta delgada,37.7333,-25.6667,22.33,94,75,7.72,PT,1698277016
245,antalaha,-14.9003,50.2788,23.63,91,79,1.76,MG,1698277016
246,mirpur sakro,24.5474,67.6277,25.64,76,4,4.17,PK,1698277016
247,san antonio de pale,-1.4014,5.6325,25.75,83,97,4.55,GQ,1698277016
248,kirensk,57.7853,108.1119,-0.58,89,100,5.36,RU,1698277016
249,masuguru,-11.3667,38.4167,25.93,74,78,2.08,TZ,1698277017
250,megion,61.0296,76.1136,-2.99,87,100,4.71,RU,1698277017
251,vuktyl,63.8567,57.3094,-7.16,91,93,3.58,RU,1698277017
252,karvina,49.854,18.5417,11.42,84,23,2.47,CZ,1698277017
253,aktyubinskiy,54.8137,52.8056,-1.75,65,100,3.76,RU,1698277017
254,kirakira,-10.4544,161.9205,29.73,66,100,2.57,SB,1698277017
255,enewetak,11.3474,162.3373,28.76,77,100,4.69,MH,1698277017
256,nogliki,51.8333,143.1667,3.52,64,70,2.24,RU,1698277017
257,lockwood,45.8191,-108.4149,-6.44,86,100,3.6,US,1698277018
258,howard springs,-12.497,131.047,32.71,65,81,1.34,AU,1698277018
259,choibalsan,48.0667,114.5,-0.17,43,6,2.14,MN,1698277018
260,brokopondo,4.75,-55.1667,27.39,73,51,5.44,SR,1698277018
261,hamar,60.7945,11.068,0.97,95,100,0.84,NO,1698277018
262,hadibu,12.65,54.0333,26.4,80,63,3.77,YE,1698277018
263,kristiansund,63.1115,7.732,5.36,70,39,2.06,NO,1698277018
264,puerto baquerizo moreno,-0.9,-89.6,23.12,84,71,5.73,EC,1698277018
265,kwang binh,17.4833,106.6,25.53,85,99,2.19,VN,1698277019
266,st. john's,47.5649,-52.7093,10.08,90,75,5.66,CA,1698276821
267,abu al matamir,30.9102,30.1744,20.27,84,0,2.91,EG,1698277019
268,arraial do cabo,-22.9661,-42.0278,21.98,83,75,2.57,BR,1698277019
269,bhadarwah,32.9833,75.7167,9.38,63,0,1.14,IN,1698277019
270,balkashino,52.5167,68.7667,-0.75,82,100,5.96,KZ,1698277019
271,labasa,-16.4167,179.3833,29.66,53,74,4.85,FJ,1698277019
272,sisimiut,66.9395,-53.6735,-3.87,67,100,5.01,GL,1698277020
273,arkhangel'sk,64.5401,40.5433,1.18,83,73,1.39,RU,1698277020
274,ilulissat,69.2167,-51.1,-2.99,46,75,2.06,GL,1698277020
275,sao felipe,-14.8167,-41.3833,30.39,34,87,2.79,BR,1698277020
276,gisborne,-38.6533,178.0042,21.2,56,14,5.36,NZ,1698277020
277,phalaborwa,-23.943,31.1411,20.6,71,0,3.04,ZA,1698276785
278,vikhorevka,56.1201,101.1636,2.77,96,100,2.0,RU,1698277020
279,saint-philippe,-21.3585,55.7679,22.77,79,5,3.96,RE,1698277021
280,kavaratti,10.5669,72.642,28.05,71,8,1.6,IN,1698277021
281,smithers,54.7804,-127.1743,1.18,37,0,1.54,CA,1698277021
282,mejit,10.2753,170.8646,28.13,74,60,4.41,MH,1698277021
283,kapa'a,22.0752,-159.319,28.6,65,100,4.63,US,1698277021
284,north scituate,41.8318,-71.5873,17.8,69,0,3.6,US,1698277021
285,yaren,-0.5472,166.916,28.84,75,23,3.99,NR,1698277022
286,juneau,58.3019,-134.4197,9.0,71,75,0.0,US,1698276932
287,minas de marcona,-15.2119,-75.1103,14.96,82,71,5.44,PE,1698277022
288,laguna,38.421,-121.4238,19.5,52,75,2.06,US,1698277022
289,bandarbeyla,9.4942,50.8122,26.83,82,97,4.11,SO,1698277022
290,mansa,29.9833,75.3833,19.4,41,0,2.2,IN,1698277023
291,nema,57.5067,50.5011,-7.67,96,24,2.7,RU,1698277023
292,nova sintra,14.8667,-24.7167,24.33,74,81,5.59,CV,1698277023
293,fuling,29.7022,107.3919,17.9,96,100,0.52,CN,1698277023
294,igarka,67.4667,86.5833,-9.92,98,94,1.21,RU,1698277023
295,ola,59.5833,151.2833,-8.81,64,2,3.15,RU,1698277023
296,gizo,-8.103,156.8419,28.39,76,99,2.51,SB,1698277024
297,tumayr,25.7039,45.868,20.28,66,51,5.37,SA,1698277024
298,constantia,44.1833,28.65,19.38,62,86,6.81,RO,1698276846
299,inhambane,-23.865,35.3833,20.41,75,0,4.18,MZ,1698277024
300,altay,47.8667,88.1167,4.5,38,81,2.97,CN,1698277024
301,rahachow,53.0934,30.0495,2.98,94,100,7.45,BY,1698277024
302,eirunepe,-6.6603,-69.8736,25.36,82,83,1.82,BR,1698276975
303,tura,25.5198,90.2201,18.79,93,0,0.84,IN,1698277025
304,petropavlovsk-kamchatsky,53.0452,158.6483,4.33,78,75,2.68,RU,1698277025
305,lhokseumawe,5.1801,97.1507,25.42,85,71,1.59,ID,1698277025
306,sinabang,2.4803,96.3801,25.77,82,87,1.19,ID,1698277025
307,port-vila,-17.7338,168.3219,25.78,89,100,1.03,VU,1698277025
308,sao joao da barra,-21.6403,-41.0511,24.05,94,100,2.99,BR,1698276848
309,vilhena,-12.7406,-60.1458,26.12,69,75,6.69,BR,1698277025
310,hammerfest,70.6634,23.6821,-1.75,80,40,1.03,NO,1698277026
311,mahibadhoo,3.7833,72.9667,27.6,79,57,5.27,MV,1698277026
312,byron bay,-28.65,153.6167,22.62,73,100,6.32,AU,1698277026
313,huarmey,-10.0681,-78.1522,19.91,87,87,3.33,PE,1698277027
314,khandud,36.9513,72.318,1.51,43,42,1.6,AF,1698277027
315,qoryooley,1.7878,44.53,24.57,91,46,3.33,SO,1698277027
316,uturoa,-16.7333,-151.4333,26.74,75,98,2.73,PF,1698277027
317,seydi,39.4816,62.9137,17.87,50,90,4.52,TM,1698277027
318,wajir,1.7471,40.0573,26.44,69,88,6.43,KE,1698277028
319,ebon,4.582,168.6964,28.61,76,20,5.01,MH,1698277028
320,xilin hot,43.9667,116.0333,3.88,42,68,1.72,CN,1698277028
321,saint john,45.2727,-66.0677,13.0,100,100,8.75,CA,1698276601
322,kribi,2.95,9.9167,24.1,91,100,1.78,CM,1698277028
323,kununurra,-15.7667,128.7333,29.99,42,52,3.6,AU,1698277028
324,harper,4.375,-7.7169,25.49,90,100,2.17,LR,1698277029
325,mahina,-17.5065,-149.489,26.87,74,100,4.12,PF,1698277029
326,quang ngai,15.1167,108.8,25.35,88,56,1.44,VN,1698277029
327,mahanoro,-19.9,48.8,23.53,95,17,1.77,MG,1698277029
328,malango,-2.9627,119.9001,24.34,62,10,0.62,ID,1698277029
329,tofol,5.3248,163.0078,30.88,66,75,1.54,FM,1698277029
330,jinchang,38.4953,102.1739,8.54,35,0,0.95,CN,1698277030
331,alenquer,-1.9417,-54.7383,28.87,52,21,0.15,BR,1698277030
332,shaffa,10.5067,12.3332,24.28,25,100,1.28,NG,1698277030
333,awjilah,29.1081,21.2869,23.57,39,76,3.58,LY,1698277030
334,kailua-kona,19.6406,-155.9956,29.77,74,20,4.12,US,1698277030
335,saint-pierre,-21.3393,55.4781,22.82,78,0,0.51,RE,1698277031
336,wuhai,39.6647,106.8122,9.42,30,0,1.07,CN,1698277031
337,port saint john's,-31.6229,29.5448,17.17,87,10,3.77,ZA,1698276857
338,villa gesell,-37.2639,-56.973,10.78,72,0,4.34,AR,1698277031
339,the pas,53.8251,-101.2541,-1.99,59,100,3.09,CA,1698277032
340,dunedin,-45.8742,170.5036,16.98,43,72,9.12,NZ,1698277032
341,keflavik,64.0049,-22.5624,6.95,81,0,4.12,IS,1698277032
342,naze,28.3667,129.4833,20.51,57,76,4.18,JP,1698276777
343,anzhero-sudzhensk,56.081,86.0285,6.24,74,100,6.59,RU,1698277032
344,arboga,59.3939,15.8388,3.41,76,100,4.65,SE,1698277032
345,banamba,13.55,-7.45,27.21,13,73,3.57,ML,1698277033
346,sarkikaraagac,38.0794,31.3664,14.85,50,100,1.95,TR,1698276976
347,petropavlivka,48.4564,36.4367,11.11,82,100,7.4,UA,1698277033
348,novouzensk,50.4592,48.1431,-1.35,60,76,1.92,RU,1698277033
349,kombolcha,11.0816,39.7434,17.31,73,96,0.76,ET,1698277033
350,iskateley,67.6803,53.1512,-3.88,87,100,3.58,RU,1698277033
351,nelson bay,-32.7167,152.15,15.56,93,100,7.6,AU,1698277034
352,oxapampa,-10.5775,-75.4017,16.95,97,98,1.37,PE,1698277034
353,hamilton,39.1834,-84.5333,22.1,69,40,1.54,US,1698276754
354,suntar,62.1444,117.6319,-4.76,89,100,2.04,RU,1698277034
355,san patricio,28.017,-97.5169,29.19,75,70,6.83,US,1698277034
356,kruisfontein,-34.0033,24.7314,14.04,83,85,2.17,ZA,1698277035
357,motueka,-41.1333,173.0167,19.5,81,79,3.02,NZ,1698277035
358,vila velha,-20.3297,-40.2925,23.97,95,75,2.06,BR,1698277035
359,ruidoso,33.3317,-105.673,14.42,52,0,4.63,US,1698277035
360,kencong,-8.2833,113.3667,26.92,75,49,0.6,ID,1698277035
361,sahibganj,25.25,87.65,21.63,81,5,1.94,IN,1698277035
362,kismayo,-0.3582,42.5454,26.13,83,98,4.58,SO,1698277035
363,goundi,9.3627,17.366,24.95,65,100,1.27,TD,1698277036
364,macau,22.2006,113.5461,25.89,78,20,4.12,MO,1698277036
365,margate,51.3813,1.3862,12.17,94,93,2.09,GB,1698277036
366,imbituba,-28.24,-48.6703,17.45,81,23,1.67,BR,1698277036
367,calama,-22.4667,-68.9333,22.27,9,0,7.72,CL,1698277036
368,yanchep,-31.55,115.6833,20.9,63,94,3.95,AU,1698277036
369,totskoye,52.5248,52.7623,-1.73,77,6,3.1,RU,1698277037
370,strelka,58.0728,93.0344,3.05,87,100,2.87,RU,1698277037
371,vanino,49.0869,140.2543,5.51,94,100,0.84,RU,1698277037
372,broome,42.2506,-75.833,17.43,86,81,0.89,US,1698277037
373,troitsko-pechorsk,62.7084,56.1964,-6.84,94,71,2.24,RU,1698277037
374,bahar,34.9072,48.4414,6.09,65,0,1.03,IR,1698277037
375,misratah,32.3754,15.0925,24.38,83,94,7.77,LY,1698277038
376,manokwari,-0.8667,134.0833,28.6,70,86,2.71,ID,1698277038
377,tuy hoa,13.0833,109.3,25.57,87,48,1.43,VN,1698277038
378,apac,1.9756,32.5386,20.89,81,99,0.85,UG,1698277038
379,puerto lempira,15.2667,-83.7667,28.08,78,75,3.09,HN,1698276941
380,horta,38.5333,-28.6333,17.79,76,100,0.89,PT,1698277038
381,mirnyy,62.5353,113.9611,-7.09,92,100,3.13,RU,1698277038
382,tara,56.8944,74.371,1.64,98,100,4.85,RU,1698277039
383,constitucion,-35.3333,-72.4167,11.63,81,15,3.35,CL,1698277039
384,rongelap,11.1635,166.8941,28.09,74,68,5.87,MH,1698277039
385,nemuro,43.3236,145.575,13.13,78,3,1.27,JP,1698277039
386,nejo,9.5,35.5,14.33,96,100,1.31,ET,1698277039
387,wanning,18.8003,110.3967,25.74,90,95,1.51,CN,1698277039
388,pudasjarvi,65.3833,26.9167,-5.51,95,62,1.98,FI,1698277040
389,daru,-9.0763,143.2092,27.57,63,71,3.51,PG,1698277040
390,belen,36.4891,36.2233,16.89,61,0,2.06,TR,1698277040
391,mezhdurechenskiy,59.6,65.9333,-5.4,69,1,2.74,RU,1698277040
392,kon tum,14.35,108.0,21.68,95,59,0.69,VN,1698277040
393,moorhead,46.8739,-96.7676,7.98,75,100,5.66,US,1698277040
394,chateaubriant,47.7167,-1.3833,14.84,88,100,8.22,FR,1698277041
395,west side highway,46.184,-122.9172,8.84,89,100,3.09,US,1698277041
396,brookings,44.3114,-96.7984,10.0,93,100,5.66,US,1698276859
397,ad dawadimi,24.5077,44.3924,20.64,42,13,3.5,SA,1698277041
398,nuuk,64.1835,-51.7216,1.34,64,75,4.12,GL,1698277010
399,odesskoye,54.2111,72.9651,2.84,86,100,7.63,RU,1698277041
400,lospalos,-8.5186,127.0025,29.81,34,9,2.36,TL,1698277041
401,qarauyl,48.9451,79.255,9.12,60,100,10.35,KZ,1698277042
402,quellon,-43.1167,-73.6167,8.82,85,68,1.06,CL,1698277042
403,myitkyina,25.3833,97.4,20.07,99,90,0.71,MM,1698276826
404,lauro de freitas,-12.8944,-38.3272,27.01,78,40,7.2,BR,1698277042
405,taroa,8.7058,171.2275,28.21,77,18,3.87,MH,1698277042
406,los andes,-32.8337,-70.5983,18.89,66,100,1.86,CL,1698277042
407,vilyuysk,63.7553,121.6247,-11.67,98,90,2.24,RU,1698277043
408,palmer,42.1584,-72.3287,17.75,64,75,3.09,US,1698276903
409,bondo,3.8146,23.6866,20.73,98,100,1.2,CD,1698277043
410,roma,43.2128,-75.4557,18.79,73,99,1.32,US,1698277043
411,tazovsky,67.4667,78.7,-10.21,95,83,2.25,RU,1698277043
412,kijang,35.2442,129.2139,12.85,56,34,1.37,KR,1698277044
413,geraldton,-28.7667,114.6,15.23,94,30,3.09,AU,1698277044
414,guadalupe y calvo,26.1,-106.9667,11.05,69,0,1.2,MX,1698277044
415,fortuna,40.5982,-124.1573,14.25,71,75,6.17,US,1698277044
416,camana,-16.6228,-72.7111,19.02,84,85,2.11,PE,1698277044
417,sabha,27.0377,14.4283,26.63,23,99,3.02,LY,1698277044
418,lata,40.1629,-8.3327,19.49,94,100,3.87,PT,1698277045
419,male,4.1748,73.5089,27.97,83,20,4.12,MV,1698277045
420,pinerolo,44.8833,7.35,12.35,92,70,0.89,IT,1698277045
421,freetown,8.484,-13.2299,25.84,89,75,3.09,SL,1698277045
422,half moon bay,37.4636,-122.4286,19.44,75,100,4.63,US,1698277045
423,northam,51.0333,-4.2167,12.59,94,100,6.87,GB,1698277045
424,deoli,25.75,75.3833,20.1,40,0,0.5,IN,1698277045
425,mount gambier,-37.8333,140.7667,11.92,60,75,4.64,AU,1698277046
426,rio bueno,-40.3167,-72.9667,15.08,70,17,2.21,CL,1698277046
427,tommot,58.9564,126.2925,-7.25,95,100,1.14,RU,1698277046
428,namtsy,62.7161,129.6658,-8.34,93,100,1.08,RU,1698277046
429,saint-laurent-du-maroni,5.5039,-54.0289,26.61,79,100,2.51,GF,1698277046
430,flying fish cove,-10.4217,105.6791,26.82,78,75,4.63,CX,1698277046
431,alamogordo,32.8995,-105.9603,20.53,51,20,4.63,US,1698277047
432,bartica,6.4,-58.6167,27.18,97,97,1.73,GY,1698277047
433,ambodifotatra,-16.9833,49.85,25.15,88,45,6.22,MG,1698277047
434,axim,4.8699,-2.2405,25.3,86,97,0.53,GH,1698277047
435,jumilla,38.4792,-1.325,18.31,73,69,2.87,ES,1698277047
436,rochefort,45.9167,-1.0,18.03,92,100,1.79,FR,1698277047
437,sola,-13.8833,167.55,26.34,78,98,1.61,VU,1698277048
438,sittwe,20.15,92.9,23.82,90,47,2.29,MM,1698277048
439,val-d'or,48.1002,-77.7828,9.05,100,100,3.6,CA,1698276959
440,pisco,-13.7,-76.2167,20.03,83,100,1.54,PE,1698277048
441,aliwal north,-30.6937,26.7114,16.37,21,7,1.78,ZA,1698277048
442,urangan,-25.3,152.9,23.99,75,5,5.98,AU,1698277048
443,caleta de carquin,-11.0925,-77.6267,19.59,87,88,3.82,PE,1698277048
444,chateaudun,48.0833,1.3333,13.3,97,80,1.89,FR,1698277049
445,mukalla,14.5425,49.1242,26.53,78,71,3.37,YE,1698277049
446,papao,-17.75,-149.55,26.82,77,95,3.41,PF,1698277049
447,yelizovo,53.1873,158.3805,5.08,65,75,2.0,RU,1698277049
448,santana,-0.0583,-51.1817,30.1,66,0,4.63,BR,1698277049
449,persembe,41.0656,37.7714,15.68,57,100,3.77,TR,1698277049
450,belle fourche,44.6714,-103.8522,0.73,72,98,8.17,US,1698276799
451,juan griego,11.0817,-63.9655,27.62,83,96,3.04,VE,1698277050
452,itamaraca,-7.7478,-34.8256,27.03,78,20,4.61,BR,1698277050
453,zyryanskoye,56.8306,86.6258,5.99,73,100,6.83,RU,1698277050
454,pecan plantation,32.3604,-97.6756,25.23,70,71,5.79,US,1698277050
455,la ronge,55.1001,-105.2842,-3.86,74,75,2.57,CA,1698277050
456,yesan,36.6776,126.8427,15.82,89,61,2.04,KR,1698277050
457,tongchuanshi,35.0806,109.0897,14.56,38,98,2.75,CN,1698277050
458,pesqueira,-8.3578,-36.6964,22.66,63,35,4.25,BR,1698277051
459,jidong,45.2167,131.0833,9.25,32,45,6.46,CN,1698277051
460,weno,7.4515,151.8468,28.87,73,99,3.39,FM,1698277051
461,uzda,53.4627,27.2137,4.16,92,100,7.38,BY,1698277051
462,matoury,4.8483,-52.3317,27.98,78,0,3.09,GF,1698277051
463,labytnangi,66.6572,66.4183,-11.71,90,58,2.69,RU,1698277051
464,progreso,21.2833,-89.6667,32.06,77,8,8.62,MX,1698277052
465,alakurtti,66.9672,30.3491,-7.67,92,78,0.54,RU,1698277052
466,manado,1.487,124.8455,28.43,74,20,1.54,ID,1698277052
467,olyokminsk,60.3736,120.4264,-6.58,88,45,1.7,RU,1698277052
468,as sulayyil,20.4607,45.5779,23.14,85,56,3.03,SA,1698277052
469,rio san juan,19.6439,-70.0763,26.38,78,72,5.06,DO,1698277052
470,sonari,27.0667,95.0333,20.01,98,88,0.66,IN,1698277052
471,xindian,36.7975,118.2944,16.96,65,42,5.09,CN,1698277053
472,machina,13.1364,10.0492,26.24,16,28,4.33,NG,1698277053
473,trevelin,-43.0858,-71.4639,12.71,79,100,3.14,AR,1698277053
474,rocha,-34.4833,-54.3333,10.07,93,28,2.52,UY,1698277053
475,choszczno,53.169,15.4205,9.02,95,99,2.8,PL,1698277053
476,el reno,35.5323,-97.955,19.1,91,75,4.12,US,1698277053
477,dhromolaxia,34.8755,33.5868,20.81,52,0,3.09,CY,1698277054
478,mokhsogollokh,61.4681,128.9203,-4.32,95,100,2.81,RU,1698277054
479,okhotsk,59.3833,143.3,-9.68,77,26,5.57,RU,1698277054
480,zalingei,12.9096,23.4741,27.36,24,92,1.3,SD,1698277054
481,dabeiba,7.0017,-76.2672,23.72,98,100,0.22,CO,1698277055
482,shingu,33.7333,135.9833,18.62,58,0,1.5,JP,1698277055
483,juuka,63.2333,29.25,-3.71,88,13,2.23,FI,1698277055
484,lerwick,60.1545,-1.1494,9.0,72,37,7.16,GB,1698277056
485,la tuque,47.4334,-72.7824,13.14,94,100,1.03,CA,1698277056
486,vila do maio,15.1333,-23.2167,26.44,76,71,5.77,CV,1698277056
487,thunder bay,48.4001,-89.3168,6.99,70,100,1.54,CA,1698276957
488,nasiriyah,31.0521,46.261,21.7,57,2,1.04,IQ,1698277056
489,chimore,-16.9833,-65.1333,31.04,43,99,0.86,BO,1698277056
490,porto novo,6.4965,2.6036,27.9,89,97,2.63,BJ,1698276934
491,pandan,14.0453,124.1694,28.15,73,98,1.96,PH,1698277057
492,nebraska city,40.6767,-95.8592,17.89,100,100,3.09,US,1698277057
493,kalajoki,64.25,23.95,-1.16,89,42,2.8,FI,1698277057
494,giado,31.9582,12.0203,20.11,69,20,3.34,LY,1698277057
495,khandyga,62.6667,135.6,-11.75,82,100,1.32,RU,1698277057
496,dongola,19.1667,30.4833,28.23,28,0,4.63,SD,1698277057
497,yerofey pavlovich,53.9667,121.9667,-3.63,52,6,2.25,RU,1698277057
498,pokhara,28.2333,83.9833,15.86,37,0,3.48,NP,1698277058
499,yantzaza,-3.8278,-78.7594,22.17,88,86,0.56,EC,1698277058
500,santa vitoria do palmar,-33.5189,-53.3681,11.83,89,28,3.23,BR,1698277058
501,wamba,8.9333,8.6,23.31,81,100,1.06,NG,1698277058
502,malabar,-33.9667,151.25,15.57,82,75,9.77,AU,1698277058
503,yanam,16.7333,82.2167,23.0,94,65,0.8,IN,1698277058
504,cockburn town,21.4612,-71.1419,27.97,63,13,9.36,TC,1698277059
505,muisne,0.6,-80.0333,25.42,81,100,5.38,EC,1698277059
506,roanoke,37.271,-79.9414,18.88,49,17,0.89,US,1698276795
507,menongue,-14.6585,17.691,19.46,79,100,2.66,AO,1698277059
508,san pedro pochutla,15.7333,-96.4667,28.84,82,85,2.43,MX,1698277059
509,ostersund,63.1792,14.6357,-0.22,86,100,5.14,SE,1698277059
510,korla,41.7597,86.1469,9.94,41,0,1.26,CN,1698277059
511,mili,6.0815,171.735,28.62,75,14,4.13,MH,1698277060
512,meizhou,24.2977,116.1072,24.71,80,51,0.58,CN,1698277060
513,santa ana,33.7456,-117.8678,22.91,67,75,5.66,US,1698277012
514,cooma,-36.2333,149.1333,9.59,42,7,5.8,AU,1698277060
515,loukhi,66.0764,33.0381,-4.16,88,21,2.01,RU,1698277060
516,box elder,41.5005,-112.8764,11.81,47,99,7.23,US,1698277060
517,floro,61.5996,5.0328,8.98,49,63,3.6,NO,1698277061
518,petauke,-14.2426,31.3253,24.68,33,1,2.5,ZM,1698277061
519,osceola,28.042,-81.1242,25.46,68,87,4.81,US,1698277061
520,ketchikan,55.3422,-131.6461,8.26,36,0,5.14,US,1698276900
521,homer,59.6425,-151.5483,8.21,59,0,1.54,US,1698276768
522,colares,38.7992,-9.4469,21.29,96,100,14.31,PT,1698277061
523,tolanaro,-25.0319,46.9987,23.04,83,75,1.03,MG,1698277061
524,kingscliff,-28.2667,153.5667,26.52,65,100,4.12,AU,1698277062
525,sa pa,22.3402,103.8441,15.78,91,57,0.62,VN,1698277062
526,huaral,-11.495,-77.2078,19.79,84,86,2.18,PE,1698276954
527,itaituba,-4.2761,-55.9836,25.74,82,93,0.61,BR,1698277062
528,dryden,49.7833,-92.7503,0.16,100,100,2.06,CA,1698277062
529,llucmajor,39.4909,2.8911,22.08,75,20,7.2,ES,1698277062
530,christchurch,-43.5333,172.6333,24.11,43,76,10.29,NZ,1698276560
531,luanda,-8.8368,13.2343,24.3,80,98,2.48,AO,1698277062
532,muncar,-8.4333,114.3333,27.64,72,53,0.3,ID,1698277063
533,paso de los toros,-32.8167,-56.5167,13.33,57,99,4.52,UY,1698277063
534,wenling,28.3669,121.36,20.64,92,100,1.01,CN,1698277063
535,burang,30.25,81.1667,-3.96,72,5,1.64,CN,1698277063
536,newman,37.3138,-121.0208,24.13,52,65,4.02,US,1698277063
537,kapit,2.0167,112.9333,24.15,97,88,0.47,MY,1698277063
538,new plymouth,-39.0667,174.0833,17.12,93,53,6.61,NZ,1698277063
539,port hedland,-20.3167,118.5667,28.03,36,31,3.6,AU,1698277064
540,ibb,13.9667,44.1833,16.73,78,59,1.99,YE,1698277064
541,chernyshevskiy,63.0128,112.4714,-7.55,98,100,1.47,RU,1698277064
542,pingliang,35.5392,106.6861,11.49,45,100,1.18,CN,1698277064
543,cozumel,20.5083,-86.9458,29.04,79,40,2.68,MX,1698277064
544,tangier,35.7806,-5.8137,20.58,100,75,2.06,MA,1698277064
545,sarina,-21.4333,149.2167,29.04,49,5,3.01,AU,1698277064
546,mildura,-34.2,142.15,13.37,53,2,9.03,AU,1698277064
547,malanje,-9.5402,16.341,19.27,95,100,0.58,AO,1698277065
548,girvan,55.2426,-4.8555,8.0,89,100,2.31,GB,1698277065
549,kyelang,32.5833,77.0333,-5.39,56,0,3.32,IN,1698277065
550,ta`u,-14.2336,-169.5144,26.17,74,75,8.8,AS,1698277065
551,kourou,5.1552,-52.6478,28.03,79,75,5.38,GF,1698277065
552,bodo,67.28,14.405,4.02,71,100,5.14,NO,1698276897
553,severo-yeniseyskiy,60.3725,93.0408,-1.35,94,100,2.24,RU,1698277066
554,morondava,-20.2833,44.2833,24.48,89,24,2.73,MG,1698277066
555,arteche,12.2645,125.4048,28.49,81,86,2.77,PH,1698277066
556,remire-montjoly,4.9167,-52.2667,28.02,78,0,3.09,GF,1698277066
557,nikolayevsk,50.0282,45.4595,1.43,56,100,3.37,RU,1698277066
558,senanga,-16.1167,23.2667,24.67,36,76,1.01,ZM,1698277066
559,mandera,3.9366,41.867,27.44,69,77,5.63,KE,1698277067
560,rodolfo sanchez taboada,31.7167,-116.5667,19.5,76,10,1.34,MX,1698277067
561,quatre cocos,-20.2078,57.7625,24.49,84,17,3.72,MU,1698277067
562,katsuura,35.1333,140.3,18.53,64,0,4.74,JP,1698277067
563,diu,20.7141,70.9822,26.55,47,26,2.56,IN,1698277067
564,tanaina,61.6269,-149.4281,4.62,61,0,1.54,US,1698277067
565,tallinn,59.437,24.7535,-1.7,74,0,6.17,EE,1698277067
566,inverloch,-38.6333,145.7167,11.97,64,99,7.26,AU,1698277067
567,pekan,3.4836,103.3996,24.06,88,98,1.82,MY,1698277068
568,bandar-e genaveh,29.5791,50.517,27.87,46,85,6.98,IR,1698277068
569,labrador city,52.9463,-66.9114,3.95,100,100,0.0,CA,1698277068
570,saudarkrokur,65.7461,-19.6394,1.13,80,69,2.19,IS,1698277068
571,urengoy,65.9667,78.3667,-5.94,95,99,2.72,RU,1698277068
572,piacabucu,-10.4056,-36.4344,25.32,80,8,8.07,BR,1698277068
573,xinghua,32.9392,119.8342,19.84,62,2,1.69,CN,1698277068
574,merizo village,13.2658,144.6691,30.55,86,98,3.45,GU,1698277069
575,molina,-35.1167,-71.2833,20.85,37,0,3.6,CL,1698277069
576,iranshahr,27.2025,60.6848,24.17,50,10,1.59,IR,1698277069
